<?xml version="1.0" encoding="UTF-8"?>
<gpx version="1.1" creator="Geographica - http://geographica.biz/" xmlns:xsi="http://www.w3.org/2001/XMLSchema-instance" xmlns="http://www.topografix.com/GPX/1/1" xsi:schemaLocation="http://www.topografix.com/GPX/1/1 http://www.topografix.com/GPX/1/1/gpx.xsd" xmlns:kashmir3d="http://www.kashmir3d.com/namespace/kashmir3d" xmlns:geographica="http://geographica.biz/namespace/geographica">
<wpt lat="35.312354" lon="139.076796" iswarning="0">
<ele>273.000000</ele>
<time>2021-08-09T01:05:03Z</time>
<name>🏚碓井組</name>
<cmt></cmt>
<extensions>
<kashmir3d:ident></kashmir3d:ident>
<kashmir3d:icon>901001</kashmir3d:icon>
<geographica:icon>0</geographica:icon>
</extensions>
</wpt>
<wpt lat="35.309102" lon="139.059935" iswarning="0">
<ele>426.000000</ele>
<time>2022-07-24T07:47:26Z</time>
<name>🍖第二解体場候補</name>
<cmt></cmt>
<extensions>
<kashmir3d:ident></kashmir3d:ident>
<kashmir3d:icon>901001</kashmir3d:icon>
<geographica:icon>0</geographica:icon>
</extensions>
</wpt>
<wpt lat="35.311943" lon="139.062003" iswarning="0">
<ele>407.000000</ele>
<time>2021-08-29T05:23:31Z</time>
<name>🌱天皇碑</name>
<cmt></cmt>
<extensions>
<kashmir3d:ident></kashmir3d:ident>
<kashmir3d:icon>901001</kashmir3d:icon>
<geographica:icon>2</geographica:icon>
</extensions>
</wpt>
<wpt lat="35.312165" lon="139.061541" iswarning="0">
<ele>409.000000</ele>
<time>2021-08-09T01:05:03Z</time>
<name>🦌横オツ</name>
<cmt></cmt>
<extensions>
<kashmir3d:ident></kashmir3d:ident>
<kashmir3d:icon>901001</kashmir3d:icon>
<geographica:icon>4</geographica:icon>
</extensions>
</wpt>
<wpt lat="35.366358" lon="139.082152" iswarning="0">
<ele>246.000000</ele>
<time>2021-08-09T01:05:03Z</time>
<name>🦌モヤシカ</name>
<cmt></cmt>
<extensions>
<kashmir3d:ident></kashmir3d:ident>
<kashmir3d:icon>901001</kashmir3d:icon>
<geographica:icon>4</geographica:icon>
</extensions>
</wpt>
<wpt lat="35.314548" lon="139.063887" iswarning="0">
<ele>374.000000</ele>
<time>2021-11-18T23:17:35Z</time>
<name>🅿️ホンダメ駐車場</name>
<cmt></cmt>
<extensions>
<kashmir3d:ident></kashmir3d:ident>
<kashmir3d:icon>901001</kashmir3d:icon>
<geographica:icon>0</geographica:icon>
</extensions>
</wpt>
<wpt lat="35.322213" lon="139.072521" iswarning="0">
<ele>216.000000</ele>
<time>2022-02-11T07:16:13Z</time>
<name>🌲中道登口</name>
<cmt></cmt>
<extensions>
<kashmir3d:ident></kashmir3d:ident>
<kashmir3d:icon>901001</kashmir3d:icon>
<geographica:icon>0</geographica:icon>
</extensions>
</wpt>
<wpt lat="35.314802" lon="139.064722" iswarning="0">
<ele>362.000000</ele>
<time>2021-08-09T01:05:03Z</time>
<name>💧ホンダメ</name>
<cmt></cmt>
<extensions>
<kashmir3d:ident></kashmir3d:ident>
<kashmir3d:icon>901001</kashmir3d:icon>
<geographica:icon>1</geographica:icon>
</extensions>
</wpt>
<wpt lat="35.317245" lon="139.065334" iswarning="0">
<ele>334.000000</ele>
<time>2021-08-09T01:05:03Z</time>
<name>🌲弘西寺林道</name>
<cmt></cmt>
<extensions>
<kashmir3d:ident></kashmir3d:ident>
<kashmir3d:icon>901001</kashmir3d:icon>
<geographica:icon>0</geographica:icon>
</extensions>
</wpt>
<wpt lat="35.316990" lon="139.066093" iswarning="0">
<ele>314.000000</ele>
<time>2021-08-09T01:05:03Z</time>
<name>🌲中道</name>
<cmt></cmt>
<extensions>
<kashmir3d:ident></kashmir3d:ident>
<kashmir3d:icon>901001</kashmir3d:icon>
<geographica:icon>0</geographica:icon>
</extensions>
</wpt>
<wpt lat="35.304995" lon="139.061535" iswarning="0">
<ele>499.000000</ele>
<time>2021-08-09T01:05:03Z</time>
<name>🌲足柄林道</name>
<cmt></cmt>
<extensions>
<kashmir3d:ident></kashmir3d:ident>
<kashmir3d:icon>901001</kashmir3d:icon>
<geographica:icon>0</geographica:icon>
</extensions>
</wpt>
<wpt lat="35.298786" lon="139.058791" iswarning="0">
<ele>561.000000</ele>
<time>2022-02-22T05:37:47Z</time>
<name>ポイント12</name>
<cmt></cmt>
<extensions>
<kashmir3d:ident></kashmir3d:ident>
<kashmir3d:icon>901001</kashmir3d:icon>
<geographica:icon>10</geographica:icon>
</extensions>
</wpt>
<wpt lat="35.297331" lon="139.057140" iswarning="0">
<ele>559.000000</ele>
<time>2022-02-22T05:37:46Z</time>
<name>ポイント13</name>
<cmt></cmt>
<extensions>
<kashmir3d:ident></kashmir3d:ident>
<kashmir3d:icon>901001</kashmir3d:icon>
<geographica:icon>10</geographica:icon>
</extensions>
</wpt>
<wpt lat="35.295098" lon="139.057164" iswarning="0">
<ele>612.000000</ele>
<time>2022-02-22T05:37:46Z</time>
<name>ポイント14</name>
<cmt></cmt>
<extensions>
<kashmir3d:ident></kashmir3d:ident>
<kashmir3d:icon>901001</kashmir3d:icon>
<geographica:icon>10</geographica:icon>
</extensions>
</wpt>
<wpt lat="35.292965" lon="139.057017" iswarning="0">
<ele>683.000000</ele>
<time>2022-02-22T05:37:45Z</time>
<name>ポイント15</name>
<cmt></cmt>
<extensions>
<kashmir3d:ident></kashmir3d:ident>
<kashmir3d:icon>901001</kashmir3d:icon>
<geographica:icon>10</geographica:icon>
</extensions>
</wpt>
<wpt lat="35.289392" lon="139.054090" iswarning="0">
<ele>786.000000</ele>
<time>2022-02-22T05:37:44Z</time>
<name>ポイント16</name>
<cmt></cmt>
<extensions>
<kashmir3d:ident></kashmir3d:ident>
<kashmir3d:icon>901001</kashmir3d:icon>
<geographica:icon>10</geographica:icon>
</extensions>
</wpt>
<wpt lat="35.287630" lon="139.048435" iswarning="0">
<ele>841.000000</ele>
<time>2022-02-22T05:37:42Z</time>
<name>ポイント18</name>
<cmt></cmt>
<extensions>
<kashmir3d:ident></kashmir3d:ident>
<kashmir3d:icon>901001</kashmir3d:icon>
<geographica:icon>10</geographica:icon>
</extensions>
</wpt>
<wpt lat="35.289698" lon="139.048481" iswarning="0">
<ele>793.000000</ele>
<time>2022-02-22T05:37:44Z</time>
<name>ポイント17</name>
<cmt></cmt>
<extensions>
<kashmir3d:ident></kashmir3d:ident>
<kashmir3d:icon>901001</kashmir3d:icon>
<geographica:icon>10</geographica:icon>
</extensions>
</wpt>
<wpt lat="35.290610" lon="139.046023" iswarning="0">
<ele>794.000000</ele>
<time>2022-02-22T05:37:42Z</time>
<name>ポイント19</name>
<cmt></cmt>
<extensions>
<kashmir3d:ident></kashmir3d:ident>
<kashmir3d:icon>901001</kashmir3d:icon>
<geographica:icon>10</geographica:icon>
</extensions>
</wpt>
<wpt lat="35.291851" lon="139.046140" iswarning="0">
<ele>792.000000</ele>
<time>2022-02-22T05:37:41Z</time>
<name>ポイント20</name>
<cmt></cmt>
<extensions>
<kashmir3d:ident></kashmir3d:ident>
<kashmir3d:icon>901001</kashmir3d:icon>
<geographica:icon>10</geographica:icon>
</extensions>
</wpt>
<wpt lat="35.294806" lon="139.051310" iswarning="0">
<ele>668.000000</ele>
<time>2021-12-09T00:29:05Z</time>
<name>🦌上唐沢上</name>
<cmt></cmt>
<extensions>
<kashmir3d:ident></kashmir3d:ident>
<kashmir3d:icon>901001</kashmir3d:icon>
<geographica:icon>4</geographica:icon>
</extensions>
</wpt>
<wpt lat="35.301639" lon="139.060985" iswarning="0">
<ele>567.000000</ele>
<time>2022-02-22T05:37:50Z</time>
<name>ポイント24</name>
<cmt></cmt>
<extensions>
<kashmir3d:ident></kashmir3d:ident>
<kashmir3d:icon>901001</kashmir3d:icon>
<geographica:icon>10</geographica:icon>
</extensions>
</wpt>
<wpt lat="35.303242" lon="139.063015" iswarning="0">
<ele>542.000000</ele>
<time>2022-02-22T05:37:50Z</time>
<name>ポイント25</name>
<cmt></cmt>
<extensions>
<kashmir3d:ident></kashmir3d:ident>
<kashmir3d:icon>901001</kashmir3d:icon>
<geographica:icon>10</geographica:icon>
</extensions>
</wpt>
<wpt lat="35.302691" lon="139.066561" iswarning="0">
<ele>464.000000</ele>
<time>2022-02-22T05:37:52Z</time>
<name>ポイント11</name>
<cmt></cmt>
<extensions>
<kashmir3d:ident></kashmir3d:ident>
<kashmir3d:icon>901001</kashmir3d:icon>
<geographica:icon>10</geographica:icon>
</extensions>
</wpt>
<wpt lat="35.304161" lon="139.065694" iswarning="0">
<ele>475.000000</ele>
<time>2022-02-22T05:37:52Z</time>
<name>ポイント10</name>
<cmt></cmt>
<extensions>
<kashmir3d:ident></kashmir3d:ident>
<kashmir3d:icon>901001</kashmir3d:icon>
<geographica:icon>10</geographica:icon>
</extensions>
</wpt>
<wpt lat="35.301532" lon="139.058229" iswarning="0">
<ele>589.000000</ele>
<time>2021-08-09T01:05:03Z</time>
<name>🅿️1の駐車場</name>
<cmt></cmt>
<extensions>
<kashmir3d:ident></kashmir3d:ident>
<kashmir3d:icon>901001</kashmir3d:icon>
<geographica:icon>0</geographica:icon>
</extensions>
</wpt>
<wpt lat="35.301125" lon="139.057328" iswarning="0">
<ele>590.000000</ele>
<time>2021-08-09T01:05:03Z</time>
<name>🅿️2の駐車場</name>
<cmt></cmt>
<extensions>
<kashmir3d:ident></kashmir3d:ident>
<kashmir3d:icon>901001</kashmir3d:icon>
<geographica:icon>0</geographica:icon>
</extensions>
</wpt>
<wpt lat="35.292443" lon="139.049160" iswarning="0">
<ele>726.000000</ele>
<time>2021-11-09T22:27:52Z</time>
<name>🦌お終いの堰堤</name>
<cmt></cmt>
<extensions>
<kashmir3d:ident></kashmir3d:ident>
<kashmir3d:icon>901001</kashmir3d:icon>
<geographica:icon>4</geographica:icon>
</extensions>
</wpt>
<wpt lat="35.292235" lon="139.049743" iswarning="0">
<ele>729.000000</ele>
<time>2021-11-09T22:28:22Z</time>
<name>🦌沢</name>
<cmt></cmt>
<extensions>
<kashmir3d:ident></kashmir3d:ident>
<kashmir3d:icon>901001</kashmir3d:icon>
<geographica:icon>4</geographica:icon>
</extensions>
</wpt>
<wpt lat="35.293209" lon="139.050726" iswarning="0">
<ele>715.000000</ele>
<time>2021-08-09T01:05:03Z</time>
<name>🦌トリカブト</name>
<cmt></cmt>
<extensions>
<kashmir3d:ident></kashmir3d:ident>
<kashmir3d:icon>901001</kashmir3d:icon>
<geographica:icon>4</geographica:icon>
</extensions>
</wpt>
<wpt lat="35.293229" lon="139.051368" iswarning="0">
<ele>720.000000</ele>
<time>2021-08-09T01:05:03Z</time>
<name>🦌スクランブル</name>
<cmt></cmt>
<extensions>
<kashmir3d:ident></kashmir3d:ident>
<kashmir3d:icon>901001</kashmir3d:icon>
<geographica:icon>4</geographica:icon>
</extensions>
</wpt>
<wpt lat="35.299572" lon="139.057726" iswarning="0">
<ele>619.000000</ele>
<time>2021-08-09T01:05:03Z</time>
<name>🦌ボサ出入り口</name>
<cmt></cmt>
<extensions>
<kashmir3d:ident></kashmir3d:ident>
<kashmir3d:icon>901001</kashmir3d:icon>
<geographica:icon>4</geographica:icon>
</extensions>
</wpt>
<wpt lat="35.299927" lon="139.058331" iswarning="0">
<ele>607.000000</ele>
<time>2021-08-09T01:05:03Z</time>
<name>🦌巨倒木</name>
<cmt></cmt>
<extensions>
<kashmir3d:ident></kashmir3d:ident>
<kashmir3d:icon>901001</kashmir3d:icon>
<geographica:icon>4</geographica:icon>
</extensions>
</wpt>
<wpt lat="35.300092" lon="139.058552" iswarning="0">
<ele>605.000000</ele>
<time>2021-08-09T01:05:03Z</time>
<name>🦌あがりっぱな</name>
<cmt></cmt>
<extensions>
<kashmir3d:ident></kashmir3d:ident>
<kashmir3d:icon>901001</kashmir3d:icon>
<geographica:icon>4</geographica:icon>
</extensions>
</wpt>
<wpt lat="35.301380" lon="139.059742" iswarning="0">
<ele>567.000000</ele>
<time>2021-08-09T01:05:03Z</time>
<name>👀見晴台</name>
<cmt></cmt>
<extensions>
<kashmir3d:ident></kashmir3d:ident>
<kashmir3d:icon>901001</kashmir3d:icon>
<geographica:icon>2</geographica:icon>
</extensions>
</wpt>
<wpt lat="35.302598" lon="139.062225" iswarning="0">
<ele>550.000000</ele>
<time>2021-09-05T12:28:05Z</time>
<name>緑を大切に37降り口</name>
<cmt></cmt>
<extensions>
<kashmir3d:ident></kashmir3d:ident>
<kashmir3d:icon>901001</kashmir3d:icon>
<geographica:icon>8</geographica:icon>
</extensions>
</wpt>
<wpt lat="35.303927" lon="139.064652" iswarning="0">
<ele>514.000000</ele>
<time>2021-08-09T01:05:03Z</time>
<name>🦌ガードレール切れ目</name>
<cmt></cmt>
<extensions>
<kashmir3d:ident></kashmir3d:ident>
<kashmir3d:icon>901001</kashmir3d:icon>
<geographica:icon>4</geographica:icon>
</extensions>
</wpt>
<wpt lat="35.304743" lon="139.064912" iswarning="0">
<ele>521.000000</ele>
<time>2021-09-11T07:07:39Z</time>
<name>🅿️桧山林道入口集合場所</name>
<cmt></cmt>
<extensions>
<kashmir3d:ident></kashmir3d:ident>
<kashmir3d:icon>901001</kashmir3d:icon>
<geographica:icon>0</geographica:icon>
</extensions>
</wpt>
<wpt lat="35.307643" lon="139.067884" iswarning="0">
<ele>445.000000</ele>
<time>2021-08-09T01:05:03Z</time>
<name>最高地点</name>
<cmt></cmt>
<extensions>
<kashmir3d:ident></kashmir3d:ident>
<kashmir3d:icon>901001</kashmir3d:icon>
<geographica:icon>8</geographica:icon>
</extensions>
</wpt>
<wpt lat="35.308284" lon="139.068452" iswarning="0">
<ele>437.000000</ele>
<time>2021-08-09T01:05:03Z</time>
<name>問7</name>
<cmt></cmt>
<extensions>
<kashmir3d:ident></kashmir3d:ident>
<kashmir3d:icon>901001</kashmir3d:icon>
<geographica:icon>8</geographica:icon>
</extensions>
</wpt>
<wpt lat="35.308981" lon="139.068817" iswarning="0">
<ele>425.000000</ele>
<time>2021-08-09T01:05:03Z</time>
<name>看板</name>
<cmt></cmt>
<extensions>
<kashmir3d:ident></kashmir3d:ident>
<kashmir3d:icon>901001</kashmir3d:icon>
<geographica:icon>8</geographica:icon>
</extensions>
</wpt>
<wpt lat="35.311929" lon="139.070576" iswarning="0">
<ele>363.000000</ele>
<time>2021-08-09T01:05:03Z</time>
<name>雨量測定器</name>
<cmt></cmt>
<extensions>
<kashmir3d:ident></kashmir3d:ident>
<kashmir3d:icon>901001</kashmir3d:icon>
<geographica:icon>8</geographica:icon>
</extensions>
</wpt>
<wpt lat="35.309877" lon="139.076167" iswarning="0">
<ele>247.000000</ele>
<time>2021-08-09T01:05:03Z</time>
<name>🅿️丸太の森駐車場</name>
<cmt></cmt>
<extensions>
<kashmir3d:ident></kashmir3d:ident>
<kashmir3d:icon>901001</kashmir3d:icon>
<geographica:icon>0</geographica:icon>
</extensions>
</wpt>
<wpt lat="35.314758" lon="139.073268" iswarning="0">
<ele>295.000000</ele>
<time>2021-08-09T01:05:03Z</time>
<name>🅿️MSAS入口</name>
<cmt></cmt>
<extensions>
<kashmir3d:ident></kashmir3d:ident>
<kashmir3d:icon>901001</kashmir3d:icon>
<geographica:icon>0</geographica:icon>
</extensions>
</wpt>
<wpt lat="35.312298" lon="139.055632" iswarning="0">
<ele>433.000000</ele>
<time>2021-08-09T01:05:03Z</time>
<name>手白尾橋</name>
<cmt></cmt>
<extensions>
<kashmir3d:ident></kashmir3d:ident>
<kashmir3d:icon>901001</kashmir3d:icon>
<geographica:icon>7</geographica:icon>
</extensions>
</wpt>
<wpt lat="35.313647" lon="139.057646" iswarning="0">
<ele>414.000000</ele>
<time>2021-08-09T01:05:03Z</time>
<name>🦌山椒</name>
<cmt></cmt>
<extensions>
<kashmir3d:ident></kashmir3d:ident>
<kashmir3d:icon>901001</kashmir3d:icon>
<geographica:icon>4</geographica:icon>
</extensions>
</wpt>
<wpt lat="35.313464" lon="139.056548" iswarning="0">
<ele>424.000000</ele>
<time>2021-08-09T01:05:03Z</time>
<name>🅿️苅野林道駐車場</name>
<cmt></cmt>
<extensions>
<kashmir3d:ident></kashmir3d:ident>
<kashmir3d:icon>901001</kashmir3d:icon>
<geographica:icon>0</geographica:icon>
</extensions>
</wpt>
<wpt lat="35.316623" lon="139.059974" iswarning="0">
<ele>346.000000</ele>
<time>2021-08-09T01:05:03Z</time>
<name>💧フチジリ沢</name>
<cmt></cmt>
<extensions>
<kashmir3d:ident></kashmir3d:ident>
<kashmir3d:icon>901001</kashmir3d:icon>
<geographica:icon>1</geographica:icon>
</extensions>
</wpt>
<wpt lat="35.315823" lon="139.061691" iswarning="0">
<ele>374.000000</ele>
<time>2021-08-09T01:05:03Z</time>
<name>🦌沢</name>
<cmt></cmt>
<extensions>
<kashmir3d:ident></kashmir3d:ident>
<kashmir3d:icon>901001</kashmir3d:icon>
<geographica:icon>4</geographica:icon>
</extensions>
</wpt>
<wpt lat="35.317343" lon="139.063009" iswarning="0">
<ele>379.000000</ele>
<time>2021-08-09T01:05:03Z</time>
<name>🦌ポカポカ</name>
<cmt></cmt>
<extensions>
<kashmir3d:ident></kashmir3d:ident>
<kashmir3d:icon>901001</kashmir3d:icon>
<geographica:icon>4</geographica:icon>
</extensions>
</wpt>
<wpt lat="35.312585" lon="139.067335" iswarning="0">
<ele>318.000000</ele>
<time>2021-08-09T01:05:03Z</time>
<name>中尾橋</name>
<cmt></cmt>
<extensions>
<kashmir3d:ident></kashmir3d:ident>
<kashmir3d:icon>901001</kashmir3d:icon>
<geographica:icon>7</geographica:icon>
</extensions>
</wpt>
<wpt lat="35.311408" lon="139.063623" iswarning="0">
<ele>356.000000</ele>
<time>2021-08-09T01:05:03Z</time>
<name>💧柄沢</name>
<cmt></cmt>
<extensions>
<kashmir3d:ident></kashmir3d:ident>
<kashmir3d:icon>901001</kashmir3d:icon>
<geographica:icon>1</geographica:icon>
</extensions>
</wpt>
<wpt lat="35.313836" lon="139.065439" iswarning="0">
<ele>390.000000</ele>
<time>2021-08-09T01:05:03Z</time>
<name>🦌ホンダメ</name>
<cmt></cmt>
<extensions>
<kashmir3d:ident></kashmir3d:ident>
<kashmir3d:icon>901001</kashmir3d:icon>
<geographica:icon>4</geographica:icon>
</extensions>
</wpt>
<wpt lat="35.313193" lon="139.063763" iswarning="0">
<ele>379.000000</ele>
<time>2021-08-09T01:05:03Z</time>
<name>🦌シマイタツマ</name>
<cmt></cmt>
<extensions>
<kashmir3d:ident></kashmir3d:ident>
<kashmir3d:icon>901001</kashmir3d:icon>
<geographica:icon>4</geographica:icon>
</extensions>
</wpt>
<wpt lat="35.312918" lon="139.066727" iswarning="0">
<ele>325.000000</ele>
<time>2021-08-09T01:05:03Z</time>
<name>🌲一の沢林道</name>
<cmt></cmt>
<extensions>
<kashmir3d:ident></kashmir3d:ident>
<kashmir3d:icon>901001</kashmir3d:icon>
<geographica:icon>0</geographica:icon>
</extensions>
</wpt>
<wpt lat="35.314513" lon="139.070566" iswarning="0">
<ele>331.000000</ele>
<time>2021-08-09T01:05:03Z</time>
<name>🌲笹原林道</name>
<cmt></cmt>
<extensions>
<kashmir3d:ident></kashmir3d:ident>
<kashmir3d:icon>901001</kashmir3d:icon>
<geographica:icon>0</geographica:icon>
</extensions>
</wpt>
<wpt lat="35.315276" lon="139.071717" iswarning="0">
<ele>321.000000</ele>
<time>2021-08-09T01:05:03Z</time>
<name>🚧</name>
<cmt></cmt>
<extensions>
<kashmir3d:ident></kashmir3d:ident>
<kashmir3d:icon>901001</kashmir3d:icon>
<geographica:icon>0</geographica:icon>
</extensions>
</wpt>
<wpt lat="35.310638" lon="139.076312" iswarning="0">
<ele>252.000000</ele>
<time>2021-08-09T01:05:03Z</time>
<name>🌲明神林道</name>
<cmt></cmt>
<extensions>
<kashmir3d:ident></kashmir3d:ident>
<kashmir3d:icon>901001</kashmir3d:icon>
<geographica:icon>0</geographica:icon>
</extensions>
</wpt>
<wpt lat="35.318957" lon="139.061125" iswarning="0">
<ele>345.000000</ele>
<time>2021-08-09T01:05:03Z</time>
<name>🌲苅野林道</name>
<cmt></cmt>
<extensions>
<kashmir3d:ident></kashmir3d:ident>
<kashmir3d:icon>901001</kashmir3d:icon>
<geographica:icon>0</geographica:icon>
</extensions>
</wpt>
<wpt lat="35.317871" lon="139.061399" iswarning="0">
<ele>325.000000</ele>
<time>2021-08-09T01:05:03Z</time>
<name>硯石橋</name>
<cmt></cmt>
<extensions>
<kashmir3d:ident></kashmir3d:ident>
<kashmir3d:icon>901001</kashmir3d:icon>
<geographica:icon>7</geographica:icon>
</extensions>
</wpt>
<wpt lat="35.297507" lon="139.058910" iswarning="0">
<ele>538.000000</ele>
<time>2022-07-24T07:47:24Z</time>
<name>🍖第一解体場候補</name>
<cmt></cmt>
<extensions>
<kashmir3d:ident></kashmir3d:ident>
<kashmir3d:icon>901001</kashmir3d:icon>
<geographica:icon>0</geographica:icon>
</extensions>
</wpt>
<wpt lat="35.305248" lon="139.055130" iswarning="0">
<ele>485.000000</ele>
<time>2021-08-09T01:05:03Z</time>
<name>暗闇沢橋</name>
<cmt></cmt>
<extensions>
<kashmir3d:ident></kashmir3d:ident>
<kashmir3d:icon>901001</kashmir3d:icon>
<geographica:icon>7</geographica:icon>
</extensions>
</wpt>
<wpt lat="35.305505" lon="139.054020" iswarning="0">
<ele>499.000000</ele>
<time>2021-08-09T01:05:03Z</time>
<name>💧手石尾沢</name>
<cmt></cmt>
<extensions>
<kashmir3d:ident></kashmir3d:ident>
<kashmir3d:icon>901001</kashmir3d:icon>
<geographica:icon>1</geographica:icon>
</extensions>
</wpt>
<wpt lat="35.305057" lon="139.055481" iswarning="0">
<ele>483.000000</ele>
<time>2021-08-24T03:46:38Z</time>
<name>🅿️暗闇沢ゲート前駐車場</name>
<cmt></cmt>
<extensions>
<kashmir3d:ident></kashmir3d:ident>
<kashmir3d:icon>901001</kashmir3d:icon>
<geographica:icon>0</geographica:icon>
</extensions>
</wpt>
<wpt lat="35.303363" lon="139.054957" iswarning="0">
<ele>493.000000</ele>
<time>2021-09-07T22:58:16Z</time>
<name>🌲暗闇沢林道</name>
<cmt></cmt>
<extensions>
<kashmir3d:ident></kashmir3d:ident>
<kashmir3d:icon>901001</kashmir3d:icon>
<geographica:icon>0</geographica:icon>
</extensions>
</wpt>
<wpt lat="35.303911" lon="139.063545" iswarning="0">
<ele>532.000000</ele>
<time>2021-08-09T01:05:03Z</time>
<name>🌲桧山林道</name>
<cmt></cmt>
<extensions>
<kashmir3d:ident></kashmir3d:ident>
<kashmir3d:icon>901001</kashmir3d:icon>
<geographica:icon>0</geographica:icon>
</extensions>
</wpt>
<wpt lat="35.305324" lon="139.056723" iswarning="0">
<ele>473.000000</ele>
<time>2021-08-09T01:05:03Z</time>
<name>🌲足柄林道</name>
<cmt></cmt>
<extensions>
<kashmir3d:ident></kashmir3d:ident>
<kashmir3d:icon>901001</kashmir3d:icon>
<geographica:icon>0</geographica:icon>
</extensions>
</wpt>
<wpt lat="35.306017" lon="139.056051" iswarning="0">
<ele>493.000000</ele>
<time>2021-08-09T01:05:03Z</time>
<name>🌲苅野林道</name>
<cmt></cmt>
<extensions>
<kashmir3d:ident></kashmir3d:ident>
<kashmir3d:icon>901001</kashmir3d:icon>
<geographica:icon>0</geographica:icon>
</extensions>
</wpt>
<wpt lat="35.308585" lon="139.060216" iswarning="0">
<ele>418.000000</ele>
<time>2021-08-09T01:05:03Z</time>
<name>🌲足柄林道</name>
<cmt></cmt>
<extensions>
<kashmir3d:ident></kashmir3d:ident>
<kashmir3d:icon>901001</kashmir3d:icon>
<geographica:icon>0</geographica:icon>
</extensions>
</wpt>
<wpt lat="35.308591" lon="139.061124" iswarning="0">
<ele>400.000000</ele>
<time>2021-08-09T01:05:03Z</time>
<name>🌲一の沢林道</name>
<cmt></cmt>
<extensions>
<kashmir3d:ident></kashmir3d:ident>
<kashmir3d:icon>901001</kashmir3d:icon>
<geographica:icon>0</geographica:icon>
</extensions>
</wpt>
<wpt lat="35.309486" lon="139.060973" iswarning="0">
<ele>412.000000</ele>
<time>2021-08-09T01:05:03Z</time>
<name>🌲弘西寺林道</name>
<cmt></cmt>
<extensions>
<kashmir3d:ident></kashmir3d:ident>
<kashmir3d:icon>901001</kashmir3d:icon>
<geographica:icon>0</geographica:icon>
</extensions>
</wpt>
<wpt lat="35.310592" lon="139.061535" iswarning="0">
<ele>415.000000</ele>
<time>2021-08-09T01:05:03Z</time>
<name>🪵倒木通行止</name>
<cmt></cmt>
<extensions>
<kashmir3d:ident></kashmir3d:ident>
<kashmir3d:icon>901001</kashmir3d:icon>
<geographica:icon>0</geographica:icon>
</extensions>
</wpt>
<wpt lat="35.307621" lon="139.049125" iswarning="0">
<ele>589.000000</ele>
<time>2021-08-09T01:05:03Z</time>
<name>長さん谷</name>
<cmt></cmt>
<extensions>
<kashmir3d:ident></kashmir3d:ident>
<kashmir3d:icon>901001</kashmir3d:icon>
<geographica:icon>43</geographica:icon>
</extensions>
</wpt>
<wpt lat="35.300094" lon="139.067471" iswarning="0">
<ele>400.000000</ele>
<time>2021-08-09T01:05:03Z</time>
<name>💧平石沢</name>
<cmt></cmt>
<extensions>
<kashmir3d:ident></kashmir3d:ident>
<kashmir3d:icon>901001</kashmir3d:icon>
<geographica:icon>1</geographica:icon>
</extensions>
</wpt>
<wpt lat="35.309372" lon="139.057242" iswarning="0">
<ele>503.000000</ele>
<time>2021-08-09T01:05:03Z</time>
<name>放犬の鉄塔</name>
<cmt></cmt>
<extensions>
<kashmir3d:ident></kashmir3d:ident>
<kashmir3d:icon>901001</kashmir3d:icon>
<geographica:icon>9</geographica:icon>
</extensions>
</wpt>
<wpt lat="35.301113" lon="139.059377" iswarning="0">
<ele>574.000000</ele>
<time>2021-11-25T00:10:50Z</time>
<name>🦌見晴台水飲場</name>
<cmt></cmt>
<extensions>
<kashmir3d:ident></kashmir3d:ident>
<kashmir3d:icon>901001</kashmir3d:icon>
<geographica:icon>4</geographica:icon>
</extensions>
</wpt>
<wpt lat="35.301308" lon="139.057772" iswarning="0">
<ele>594.000000</ele>
<time>2022-02-22T05:37:49Z</time>
<name>ポイント23</name>
<cmt></cmt>
<extensions>
<kashmir3d:ident></kashmir3d:ident>
<kashmir3d:icon>901001</kashmir3d:icon>
<geographica:icon>10</geographica:icon>
</extensions>
</wpt>
<wpt lat="35.304112" lon="139.055653" iswarning="0">
<ele>474.000000</ele>
<time>2021-08-09T01:05:03Z</time>
<name>💧唐沢川</name>
<cmt></cmt>
<extensions>
<kashmir3d:ident></kashmir3d:ident>
<kashmir3d:icon>901001</kashmir3d:icon>
<geographica:icon>1</geographica:icon>
</extensions>
</wpt>
<wpt lat="35.255962" lon="139.067469" iswarning="0">
<ele>922.000000</ele>
<time>2021-08-09T01:05:03Z</time>
<name>明星ヶ岳</name>
<cmt></cmt>
<extensions>
<kashmir3d:ident></kashmir3d:ident>
<kashmir3d:icon>901001</kashmir3d:icon>
<geographica:icon>14</geographica:icon>
</extensions>
</wpt>
<wpt lat="35.279443" lon="139.052508" iswarning="0">
<ele>1166.000000</ele>
<time>2021-08-09T01:05:03Z</time>
<name>明神ヶ岳</name>
<cmt></cmt>
<extensions>
<kashmir3d:ident></kashmir3d:ident>
<kashmir3d:icon>901001</kashmir3d:icon>
<geographica:icon>14</geographica:icon>
</extensions>
</wpt>
<wpt lat="35.293067" lon="139.049504" iswarning="0">
<ele>707.000000</ele>
<time>2021-08-09T01:05:03Z</time>
<name>🦌渡り</name>
<cmt></cmt>
<extensions>
<kashmir3d:ident></kashmir3d:ident>
<kashmir3d:icon>901001</kashmir3d:icon>
<geographica:icon>4</geographica:icon>
</extensions>
</wpt>
<wpt lat="35.312277" lon="139.076520" iswarning="0">
<ele>281.000000</ele>
<time>2021-08-09T01:04:51Z</time>
<name>←禁猟区</name>
<cmt></cmt>
<extensions>
<kashmir3d:ident></kashmir3d:ident>
<kashmir3d:icon>901001</kashmir3d:icon>
<geographica:icon>16</geographica:icon>
</extensions>
</wpt>
<wpt lat="35.298042" lon="139.076279" iswarning="0">
<ele>466.000000</ele>
<time>2021-08-09T01:04:51Z</time>
<name>↑禁猟区</name>
<cmt></cmt>
<extensions>
<kashmir3d:ident></kashmir3d:ident>
<kashmir3d:icon>901001</kashmir3d:icon>
<geographica:icon>16</geographica:icon>
</extensions>
</wpt>
<wpt lat="35.300757" lon="139.069113" iswarning="0">
<ele>379.000000</ele>
<time>2021-08-09T01:04:51Z</time>
<name>↑禁猟区</name>
<cmt></cmt>
<extensions>
<kashmir3d:ident></kashmir3d:ident>
<kashmir3d:icon>901001</kashmir3d:icon>
<geographica:icon>16</geographica:icon>
</extensions>
</wpt>
<wpt lat="35.296551" lon="139.072196" iswarning="0">
<ele>437.000000</ele>
<time>2021-08-09T01:04:51Z</time>
<name>↑禁猟区</name>
<cmt></cmt>
<extensions>
<kashmir3d:ident></kashmir3d:ident>
<kashmir3d:icon>901001</kashmir3d:icon>
<geographica:icon>16</geographica:icon>
</extensions>
</wpt>
<wpt lat="35.306177" lon="139.064462" iswarning="0">
<ele>470.000000</ele>
<time>2021-08-09T01:04:51Z</time>
<name>→禁猟区</name>
<cmt></cmt>
<extensions>
<kashmir3d:ident></kashmir3d:ident>
<kashmir3d:icon>901001</kashmir3d:icon>
<geographica:icon>16</geographica:icon>
</extensions>
</wpt>
<wpt lat="35.309266" lon="139.066736" iswarning="0">
<ele>400.000000</ele>
<time>2021-08-09T01:04:51Z</time>
<name>→禁猟区</name>
<cmt></cmt>
<extensions>
<kashmir3d:ident></kashmir3d:ident>
<kashmir3d:icon>901001</kashmir3d:icon>
<geographica:icon>16</geographica:icon>
</extensions>
</wpt>
<wpt lat="35.312286" lon="139.069665" iswarning="0">
<ele>335.000000</ele>
<time>2021-08-09T01:04:51Z</time>
<name>→禁猟区</name>
<cmt></cmt>
<extensions>
<kashmir3d:ident></kashmir3d:ident>
<kashmir3d:icon>901001</kashmir3d:icon>
<geographica:icon>16</geographica:icon>
</extensions>
</wpt>
<wpt lat="35.304837" lon="139.065552" iswarning="0">
<ele>501.000000</ele>
<time>2021-08-09T01:04:51Z</time>
<name>→禁猟区</name>
<cmt></cmt>
<extensions>
<kashmir3d:ident></kashmir3d:ident>
<kashmir3d:icon>901001</kashmir3d:icon>
<geographica:icon>16</geographica:icon>
</extensions>
</wpt>
<wpt lat="35.297399" lon="139.069068" iswarning="0">
<ele>453.000000</ele>
<time>2021-08-09T01:04:51Z</time>
<name>→禁猟区</name>
<cmt></cmt>
<extensions>
<kashmir3d:ident></kashmir3d:ident>
<kashmir3d:icon>901001</kashmir3d:icon>
<geographica:icon>16</geographica:icon>
</extensions>
</wpt>
<wpt lat="35.316082" lon="139.072875" iswarning="0">
<ele>300.000000</ele>
<time>2021-08-09T01:04:51Z</time>
<name>↓禁猟区</name>
<cmt></cmt>
<extensions>
<kashmir3d:ident></kashmir3d:ident>
<kashmir3d:icon>901001</kashmir3d:icon>
<geographica:icon>16</geographica:icon>
</extensions>
</wpt>
<wpt lat="35.314437" lon="139.074386" iswarning="0">
<ele>287.000000</ele>
<time>2021-08-09T01:04:51Z</time>
<name>↓禁猟区</name>
<cmt></cmt>
<extensions>
<kashmir3d:ident></kashmir3d:ident>
<kashmir3d:icon>901001</kashmir3d:icon>
<geographica:icon>16</geographica:icon>
</extensions>
</wpt>
<wpt lat="35.310123" lon="139.076182" iswarning="0">
<ele>244.000000</ele>
<time>2021-08-09T01:04:51Z</time>
<name>↓禁猟区</name>
<cmt></cmt>
<extensions>
<kashmir3d:ident></kashmir3d:ident>
<kashmir3d:icon>901001</kashmir3d:icon>
<geographica:icon>16</geographica:icon>
</extensions>
</wpt>
<wpt lat="35.309435" lon="139.079146" iswarning="0">
<ele>225.000000</ele>
<time>2021-08-09T01:04:51Z</time>
<name>↓禁猟区</name>
<cmt></cmt>
<extensions>
<kashmir3d:ident></kashmir3d:ident>
<kashmir3d:icon>901001</kashmir3d:icon>
<geographica:icon>16</geographica:icon>
</extensions>
</wpt>
<wpt lat="35.299513" lon="139.048916" iswarning="0">
<ele>607.000000</ele>
<time>2021-09-27T03:33:12Z</time>
<name>⛺️暗闇沢キャンプ場</name>
<cmt></cmt>
<extensions>
<kashmir3d:ident></kashmir3d:ident>
<kashmir3d:icon>901001</kashmir3d:icon>
<geographica:icon>9</geographica:icon>
</extensions>
</wpt>
<wpt lat="35.297457" lon="139.059057" iswarning="0">
<ele>537.000000</ele>
<time>2021-08-09T01:04:51Z</time>
<name>上総川橋</name>
<cmt></cmt>
<extensions>
<kashmir3d:ident></kashmir3d:ident>
<kashmir3d:icon>901001</kashmir3d:icon>
<geographica:icon>7</geographica:icon>
</extensions>
</wpt>
<wpt lat="35.299390" lon="139.056980" iswarning="0">
<ele>626.000000</ele>
<time>2021-08-09T01:04:51Z</time>
<name>上総川橋の降り口</name>
<cmt></cmt>
<extensions>
<kashmir3d:ident></kashmir3d:ident>
<kashmir3d:icon>901001</kashmir3d:icon>
<geographica:icon>8</geographica:icon>
</extensions>
</wpt>
<wpt lat="35.296711" lon="139.053814" iswarning="0">
<ele>656.000000</ele>
<time>2021-11-29T00:13:49Z</time>
<name>🦌交差点</name>
<cmt></cmt>
<extensions>
<kashmir3d:ident></kashmir3d:ident>
<kashmir3d:icon>901001</kashmir3d:icon>
<geographica:icon>4</geographica:icon>
</extensions>
</wpt>
<wpt lat="35.305005" lon="139.055656" iswarning="0">
<ele>483.000000</ele>
<time>2021-09-07T22:57:30Z</time>
<name>🚧暗闇沢ゲート</name>
<cmt></cmt>
<extensions>
<kashmir3d:ident></kashmir3d:ident>
<kashmir3d:icon>901001</kashmir3d:icon>
<geographica:icon>0</geographica:icon>
</extensions>
</wpt>
<wpt lat="35.305561" lon="139.045259" iswarning="0">
<ele>740.000000</ele>
<time>2021-08-13T01:40:28Z</time>
<name>🦌トナカイのオツ</name>
<cmt></cmt>
<extensions>
<kashmir3d:ident></kashmir3d:ident>
<kashmir3d:icon>901001</kashmir3d:icon>
<geographica:icon>4</geographica:icon>
</extensions>
</wpt>
<wpt lat="35.311350" lon="139.056228" iswarning="0">
<ele>479.000000</ele>
<time>2021-08-17T05:30:57Z</time>
<name>240mの鉄塔</name>
<cmt></cmt>
<extensions>
<kashmir3d:ident></kashmir3d:ident>
<kashmir3d:icon>901001</kashmir3d:icon>
<geographica:icon>9</geographica:icon>
</extensions>
</wpt>
<wpt lat="35.310020" lon="139.058193" iswarning="0">
<ele>499.000000</ele>
<time>2021-09-26T00:00:56Z</time>
<name>🐕放犬</name>
<cmt></cmt>
<extensions>
<kashmir3d:ident></kashmir3d:ident>
<kashmir3d:icon>901001</kashmir3d:icon>
<geographica:icon>5</geographica:icon>
</extensions>
</wpt>
<wpt lat="35.316952" lon="139.058150" iswarning="0">
<ele>369.000000</ele>
<time>2022-07-24T07:47:25Z</time>
<name>🍖第三解体場候補</name>
<cmt></cmt>
<extensions>
<kashmir3d:ident></kashmir3d:ident>
<kashmir3d:icon>901001</kashmir3d:icon>
<geographica:icon>0</geographica:icon>
</extensions>
</wpt>
<wpt lat="35.314529" lon="139.055953" iswarning="0">
<ele>462.000000</ele>
<time>2021-08-09T01:04:31Z</time>
<name>🦌ワンコ</name>
<cmt></cmt>
<extensions>
<kashmir3d:ident></kashmir3d:ident>
<kashmir3d:icon>901001</kashmir3d:icon>
<geographica:icon>4</geographica:icon>
</extensions>
</wpt>
<wpt lat="35.313756" lon="139.056517" iswarning="0">
<ele>432.000000</ele>
<time>2021-08-09T01:04:31Z</time>
<name>🦌駐車場上</name>
<cmt></cmt>
<extensions>
<kashmir3d:ident></kashmir3d:ident>
<kashmir3d:icon>901001</kashmir3d:icon>
<geographica:icon>4</geographica:icon>
</extensions>
</wpt>
<wpt lat="35.314468" lon="139.056937" iswarning="0">
<ele>428.000000</ele>
<time>2021-08-09T01:04:31Z</time>
<name>🦌林間</name>
<cmt></cmt>
<extensions>
<kashmir3d:ident></kashmir3d:ident>
<kashmir3d:icon>901001</kashmir3d:icon>
<geographica:icon>4</geographica:icon>
</extensions>
</wpt>
<wpt lat="35.316210" lon="139.057208" iswarning="0">
<ele>414.000000</ele>
<time>2021-08-09T01:04:31Z</time>
<name>🦌道の上</name>
<cmt></cmt>
<extensions>
<kashmir3d:ident></kashmir3d:ident>
<kashmir3d:icon>901001</kashmir3d:icon>
<geographica:icon>4</geographica:icon>
</extensions>
</wpt>
<wpt lat="35.316028" lon="139.058399" iswarning="0">
<ele>396.000000</ele>
<time>2021-08-09T01:04:31Z</time>
<name>🦌ライオン</name>
<cmt></cmt>
<extensions>
<kashmir3d:ident></kashmir3d:ident>
<kashmir3d:icon>901001</kashmir3d:icon>
<geographica:icon>4</geographica:icon>
</extensions>
</wpt>
<wpt lat="35.314712" lon="139.058144" iswarning="0">
<ele>434.000000</ele>
<time>2021-08-09T01:04:31Z</time>
<name>🧢デニムキャップ</name>
<cmt></cmt>
<extensions>
<kashmir3d:ident></kashmir3d:ident>
<kashmir3d:icon>901001</kashmir3d:icon>
<geographica:icon>0</geographica:icon>
</extensions>
</wpt>
<wpt lat="35.312670" lon="139.053423" iswarning="0">
<ele>539.000000</ele>
<time>2021-08-17T07:27:47Z</time>
<name>2600年記念碑</name>
<cmt></cmt>
<extensions>
<kashmir3d:ident></kashmir3d:ident>
<kashmir3d:icon>901001</kashmir3d:icon>
<geographica:icon>8</geographica:icon>
</extensions>
</wpt>
<wpt lat="35.313745" lon="139.054365" iswarning="0">
<ele>516.000000</ele>
<time>2021-08-09T01:04:31Z</time>
<name>梅さんの鉄塔</name>
<cmt></cmt>
<extensions>
<kashmir3d:ident></kashmir3d:ident>
<kashmir3d:icon>901001</kashmir3d:icon>
<geographica:icon>9</geographica:icon>
</extensions>
</wpt>
<wpt lat="35.315380" lon="139.056929" iswarning="0">
<ele>450.000000</ele>
<time>2021-09-07T22:56:42Z</time>
<name>七区のパイプ</name>
<cmt></cmt>
<extensions>
<kashmir3d:ident></kashmir3d:ident>
<kashmir3d:icon>901001</kashmir3d:icon>
<geographica:icon>8</geographica:icon>
</extensions>
</wpt>
<wpt lat="35.306423" lon="139.045169" iswarning="0">
<ele>726.000000</ele>
<time>2021-08-24T03:57:02Z</time>
<name>雌株山椒</name>
<cmt></cmt>
<extensions>
<kashmir3d:ident></kashmir3d:ident>
<kashmir3d:icon>901001</kashmir3d:icon>
<geographica:icon>8</geographica:icon>
</extensions>
</wpt>
<wpt lat="35.304680" lon="139.056096" iswarning="0">
<ele>482.000000</ele>
<time>2021-08-24T03:48:30Z</time>
<name>🅿️暗闇沢ゲート先駐車場</name>
<cmt></cmt>
<extensions>
<kashmir3d:ident></kashmir3d:ident>
<kashmir3d:icon>901001</kashmir3d:icon>
<geographica:icon>0</geographica:icon>
</extensions>
</wpt>
<wpt lat="35.301256" lon="139.041900" iswarning="0">
<ele>823.000000</ele>
<time>2021-08-24T03:58:01Z</time>
<name>暗闇岳</name>
<cmt></cmt>
<extensions>
<kashmir3d:ident></kashmir3d:ident>
<kashmir3d:icon>901001</kashmir3d:icon>
<geographica:icon>8</geographica:icon>
</extensions>
</wpt>
<wpt lat="35.302362" lon="139.042275" iswarning="0">
<ele>800.000000</ele>
<time>2021-08-24T03:54:32Z</time>
<name>🐻熊剥の木</name>
<cmt></cmt>
<extensions>
<kashmir3d:ident></kashmir3d:ident>
<kashmir3d:icon>901001</kashmir3d:icon>
<geographica:icon>21</geographica:icon>
</extensions>
</wpt>
<wpt lat="35.305262" lon="139.043888" iswarning="0">
<ele>771.000000</ele>
<time>2021-08-24T03:57:50Z</time>
<name>植林境界</name>
<cmt></cmt>
<extensions>
<kashmir3d:ident></kashmir3d:ident>
<kashmir3d:icon>901001</kashmir3d:icon>
<geographica:icon>8</geographica:icon>
</extensions>
</wpt>
<wpt lat="35.298752" lon="139.054500" iswarning="0">
<ele>625.000000</ele>
<time>2021-08-29T05:31:27Z</time>
<name>🐕桧山下の放犬</name>
<cmt></cmt>
<extensions>
<kashmir3d:ident></kashmir3d:ident>
<kashmir3d:icon>901001</kashmir3d:icon>
<geographica:icon>11</geographica:icon>
</extensions>
</wpt>
<wpt lat="35.297100" lon="139.053448" iswarning="0">
<ele>637.000000</ele>
<time>2021-08-29T05:34:31Z</time>
<name>交差点への登口</name>
<cmt></cmt>
<extensions>
<kashmir3d:ident></kashmir3d:ident>
<kashmir3d:icon>901001</kashmir3d:icon>
<geographica:icon>8</geographica:icon>
</extensions>
</wpt>
<wpt lat="35.301243" lon="139.061852" iswarning="0">
<ele>582.000000</ele>
<time>2021-08-27T00:31:36Z</time>
<name>桧山上の鉄塔</name>
<cmt></cmt>
<extensions>
<kashmir3d:ident></kashmir3d:ident>
<kashmir3d:icon>901001</kashmir3d:icon>
<geographica:icon>9</geographica:icon>
</extensions>
</wpt>
<wpt lat="35.304300" lon="139.060114" iswarning="0">
<ele>527.000000</ele>
<time>2021-08-27T00:30:24Z</time>
<name>桧山下の鉄塔</name>
<cmt></cmt>
<extensions>
<kashmir3d:ident></kashmir3d:ident>
<kashmir3d:icon>901001</kashmir3d:icon>
<geographica:icon>9</geographica:icon>
</extensions>
</wpt>
<wpt lat="35.301395" lon="139.058956" iswarning="0">
<ele>581.000000</ele>
<time>2021-08-29T02:14:50Z</time>
<name>⛺️見晴台キャンプ場</name>
<cmt></cmt>
<extensions>
<kashmir3d:ident></kashmir3d:ident>
<kashmir3d:icon>901001</kashmir3d:icon>
<geographica:icon>9</geographica:icon>
</extensions>
</wpt>
<wpt lat="35.295197" lon="139.051394" iswarning="0">
<ele>653.000000</ele>
<time>2021-08-29T05:27:03Z</time>
<name>上唐沢橋</name>
<cmt></cmt>
<extensions>
<kashmir3d:ident></kashmir3d:ident>
<kashmir3d:icon>901001</kashmir3d:icon>
<geographica:icon>7</geographica:icon>
</extensions>
</wpt>
<wpt lat="35.298457" lon="139.053808" iswarning="0">
<ele>601.000000</ele>
<time>2021-11-29T00:01:12Z</time>
<name>🦌苔株</name>
<cmt></cmt>
<extensions>
<kashmir3d:ident></kashmir3d:ident>
<kashmir3d:icon>901001</kashmir3d:icon>
<geographica:icon>4</geographica:icon>
</extensions>
</wpt>
<wpt lat="35.300141" lon="139.054127" iswarning="0">
<ele>570.000000</ele>
<time>2021-11-29T00:02:12Z</time>
<name>🦌伐採</name>
<cmt></cmt>
<extensions>
<kashmir3d:ident></kashmir3d:ident>
<kashmir3d:icon>901001</kashmir3d:icon>
<geographica:icon>4</geographica:icon>
</extensions>
</wpt>
<wpt lat="35.317744" lon="139.091230" iswarning="0">
<ele>103.000000</ele>
<time>2022-02-11T07:15:42Z</time>
<name>🌲マムシ沢登口</name>
<cmt></cmt>
<extensions>
<kashmir3d:ident></kashmir3d:ident>
<kashmir3d:icon>901001</kashmir3d:icon>
<geographica:icon>0</geographica:icon>
</extensions>
</wpt>
<wpt lat="35.316981" lon="139.082000" iswarning="0">
<ele>159.000000</ele>
<time>2022-02-11T07:05:34Z</time>
<name>🌲マムシ沢</name>
<cmt></cmt>
<extensions>
<kashmir3d:ident></kashmir3d:ident>
<kashmir3d:icon>901001</kashmir3d:icon>
<geographica:icon>0</geographica:icon>
</extensions>
</wpt>
<wpt lat="35.304378" lon="139.063624" iswarning="0">
<ele>513.000000</ele>
<time>2021-09-05T21:14:43Z</time>
<name>🦌桧山終いタツ</name>
<cmt></cmt>
<extensions>
<kashmir3d:ident></kashmir3d:ident>
<kashmir3d:icon>901001</kashmir3d:icon>
<geographica:icon>4</geographica:icon>
</extensions>
</wpt>
<wpt lat="35.302389" lon="139.062190" iswarning="0">
<ele>555.000000</ele>
<time>2021-09-05T21:13:40Z</time>
<name>緑を大切に38登口</name>
<cmt></cmt>
<extensions>
<kashmir3d:ident></kashmir3d:ident>
<kashmir3d:icon>901001</kashmir3d:icon>
<geographica:icon>8</geographica:icon>
</extensions>
</wpt>
<wpt lat="35.303243" lon="139.058801" iswarning="0">
<ele>547.000000</ele>
<time>2021-09-05T12:26:47Z</time>
<name>🦌大谷</name>
<cmt></cmt>
<extensions>
<kashmir3d:ident></kashmir3d:ident>
<kashmir3d:icon>901001</kashmir3d:icon>
<geographica:icon>4</geographica:icon>
</extensions>
</wpt>
<wpt lat="35.302488" lon="139.057696" iswarning="0">
<ele>561.000000</ele>
<time>2021-10-17T02:38:21Z</time>
<name>🦌イージー</name>
<cmt></cmt>
<extensions>
<kashmir3d:ident></kashmir3d:ident>
<kashmir3d:icon>901001</kashmir3d:icon>
<geographica:icon>4</geographica:icon>
</extensions>
</wpt>
<wpt lat="35.301521" lon="139.058019" iswarning="0">
<ele>589.000000</ele>
<time>2021-09-05T21:08:40Z</time>
<name>桧山下降り口</name>
<cmt></cmt>
<extensions>
<kashmir3d:ident></kashmir3d:ident>
<kashmir3d:icon>901001</kashmir3d:icon>
<geographica:icon>8</geographica:icon>
</extensions>
</wpt>
<wpt lat="35.299964" lon="139.055199" iswarning="0">
<ele>597.000000</ele>
<time>2021-10-24T09:07:19Z</time>
<name>🦌桧山中タツ</name>
<cmt></cmt>
<extensions>
<kashmir3d:ident></kashmir3d:ident>
<kashmir3d:icon>901001</kashmir3d:icon>
<geographica:icon>4</geographica:icon>
</extensions>
</wpt>
<wpt lat="35.300888" lon="139.049870" iswarning="0">
<ele>591.000000</ele>
<time>2022-01-29T01:48:28Z</time>
<name>🦌キャンプ場下</name>
<cmt></cmt>
<extensions>
<kashmir3d:ident></kashmir3d:ident>
<kashmir3d:icon>901001</kashmir3d:icon>
<geographica:icon>4</geographica:icon>
</extensions>
</wpt>
<wpt lat="35.301898" lon="139.046731" iswarning="0">
<ele>673.000000</ele>
<time>2021-09-13T01:28:07Z</time>
<name>🦌暗闇岳中タツ</name>
<cmt></cmt>
<extensions>
<kashmir3d:ident></kashmir3d:ident>
<kashmir3d:icon>901001</kashmir3d:icon>
<geographica:icon>4</geographica:icon>
</extensions>
</wpt>
<wpt lat="35.301932" lon="139.043382" iswarning="0">
<ele>797.000000</ele>
<time>2021-09-12T06:42:33Z</time>
<name>🦌スター</name>
<cmt></cmt>
<extensions>
<kashmir3d:ident></kashmir3d:ident>
<kashmir3d:icon>901001</kashmir3d:icon>
<geographica:icon>4</geographica:icon>
</extensions>
</wpt>
<wpt lat="35.302488" lon="139.044131" iswarning="0">
<ele>777.000000</ele>
<time>2021-09-12T13:41:33Z</time>
<name>🦌ムロ岩</name>
<cmt></cmt>
<extensions>
<kashmir3d:ident></kashmir3d:ident>
<kashmir3d:icon>901001</kashmir3d:icon>
<geographica:icon>4</geographica:icon>
</extensions>
</wpt>
<wpt lat="35.301166" lon="139.043601" iswarning="0">
<ele>768.000000</ele>
<time>2021-09-12T06:42:18Z</time>
<name>🦌アメリカ</name>
<cmt></cmt>
<extensions>
<kashmir3d:ident></kashmir3d:ident>
<kashmir3d:icon>901001</kashmir3d:icon>
<geographica:icon>4</geographica:icon>
</extensions>
</wpt>
<wpt lat="35.300012" lon="139.044023" iswarning="0">
<ele>728.000000</ele>
<time>2021-09-12T06:42:10Z</time>
<name>🦌太平洋</name>
<cmt></cmt>
<extensions>
<kashmir3d:ident></kashmir3d:ident>
<kashmir3d:icon>901001</kashmir3d:icon>
<geographica:icon>4</geographica:icon>
</extensions>
</wpt>
<wpt lat="35.299734" lon="139.045771" iswarning="0">
<ele>700.000000</ele>
<time>2021-09-12T06:56:03Z</time>
<name>🐕ガロ侵入ポイント</name>
<cmt></cmt>
<extensions>
<kashmir3d:ident></kashmir3d:ident>
<kashmir3d:icon>901001</kashmir3d:icon>
<geographica:icon>5</geographica:icon>
</extensions>
</wpt>
<wpt lat="35.311883" lon="139.058736" iswarning="0">
<ele>442.000000</ele>
<time>2021-09-13T07:31:52Z</time>
<name>🦌大岩</name>
<cmt></cmt>
<extensions>
<kashmir3d:ident></kashmir3d:ident>
<kashmir3d:icon>901001</kashmir3d:icon>
<geographica:icon>4</geographica:icon>
</extensions>
</wpt>
<wpt lat="35.312482" lon="139.057118" iswarning="0">
<ele>450.000000</ele>
<time>2021-09-26T01:59:47Z</time>
<name>🦌山椒上</name>
<cmt></cmt>
<extensions>
<kashmir3d:ident></kashmir3d:ident>
<kashmir3d:icon>901001</kashmir3d:icon>
<geographica:icon>4</geographica:icon>
</extensions>
</wpt>
<wpt lat="35.313630" lon="139.059801" iswarning="0">
<ele>433.000000</ele>
<time>2021-09-13T07:32:23Z</time>
<name>🦌小尾根</name>
<cmt>青テープ2本</cmt>
<extensions>
<kashmir3d:ident></kashmir3d:ident>
<kashmir3d:icon>901001</kashmir3d:icon>
<geographica:icon>4</geographica:icon>
</extensions>
</wpt>
<wpt lat="35.314382" lon="139.060460" iswarning="0">
<ele>430.000000</ele>
<time>2021-09-13T07:32:47Z</time>
<name>🦌最奥</name>
<cmt>青テープ2本</cmt>
<extensions>
<kashmir3d:ident></kashmir3d:ident>
<kashmir3d:icon>901001</kashmir3d:icon>
<geographica:icon>4</geographica:icon>
</extensions>
</wpt>
<wpt lat="35.313037" lon="139.058961" iswarning="0">
<ele>423.000000</ele>
<time>2021-09-13T07:32:07Z</time>
<name>🦌沢ガニ</name>
<cmt>青テープ2本</cmt>
<extensions>
<kashmir3d:ident></kashmir3d:ident>
<kashmir3d:icon>901001</kashmir3d:icon>
<geographica:icon>4</geographica:icon>
</extensions>
</wpt>
<wpt lat="35.311673" lon="139.061729" iswarning="0">
<ele>409.000000</ele>
<time>2021-09-26T04:49:20Z</time>
<name>🦌天皇碑の先</name>
<cmt></cmt>
<extensions>
<kashmir3d:ident></kashmir3d:ident>
<kashmir3d:icon>901001</kashmir3d:icon>
<geographica:icon>4</geographica:icon>
</extensions>
</wpt>
<wpt lat="35.310223" lon="139.058517" iswarning="0">
<ele>492.000000</ele>
<time>2021-09-26T02:01:56Z</time>
<name>🦌撃ち返し</name>
<cmt></cmt>
<extensions>
<kashmir3d:ident></kashmir3d:ident>
<kashmir3d:icon>901001</kashmir3d:icon>
<geographica:icon>4</geographica:icon>
</extensions>
</wpt>
<wpt lat="35.306282" lon="139.047802" iswarning="0">
<ele>668.000000</ele>
<time>2021-10-10T23:12:39Z</time>
<name>🦌岩清水</name>
<cmt></cmt>
<extensions>
<kashmir3d:ident></kashmir3d:ident>
<kashmir3d:icon>901001</kashmir3d:icon>
<geographica:icon>4</geographica:icon>
</extensions>
</wpt>
<wpt lat="35.306809" lon="139.052676" iswarning="0">
<ele>590.000000</ele>
<time>2021-10-10T23:12:50Z</time>
<name>🦌岩清水下</name>
<cmt></cmt>
<extensions>
<kashmir3d:ident></kashmir3d:ident>
<kashmir3d:icon>901001</kashmir3d:icon>
<geographica:icon>4</geographica:icon>
</extensions>
</wpt>
<wpt lat="35.298848" lon="139.053754" iswarning="0">
<ele>597.000000</ele>
<time>2021-11-29T00:01:29Z</time>
<name>🦌苔株下</name>
<cmt></cmt>
<extensions>
<kashmir3d:ident></kashmir3d:ident>
<kashmir3d:icon>901001</kashmir3d:icon>
<geographica:icon>4</geographica:icon>
</extensions>
</wpt>
<wpt lat="35.292199" lon="139.047536" iswarning="0">
<ele>746.000000</ele>
<time>2021-10-12T00:21:30Z</time>
<name>🐕放犬</name>
<cmt></cmt>
<extensions>
<kashmir3d:ident></kashmir3d:ident>
<kashmir3d:icon>901001</kashmir3d:icon>
<geographica:icon>5</geographica:icon>
</extensions>
</wpt>
<wpt lat="35.311788" lon="139.060637" iswarning="0">
<ele>454.000000</ele>
<time>2021-12-23T00:23:21Z</time>
<name>🦌オツ交差点</name>
<cmt></cmt>
<extensions>
<kashmir3d:ident></kashmir3d:ident>
<kashmir3d:icon>901001</kashmir3d:icon>
<geographica:icon>4</geographica:icon>
</extensions>
</wpt>
<wpt lat="35.296080" lon="139.050587" iswarning="0">
<ele>657.000000</ele>
<time>2021-11-29T07:14:38Z</time>
<name>🦌上唐沢先</name>
<cmt></cmt>
<extensions>
<kashmir3d:ident></kashmir3d:ident>
<kashmir3d:icon>901001</kashmir3d:icon>
<geographica:icon>4</geographica:icon>
</extensions>
</wpt>
<wpt lat="35.298647" lon="139.052317" iswarning="0">
<ele>605.000000</ele>
<time>2021-10-20T00:38:05Z</time>
<name>🦌苔株の向い</name>
<cmt></cmt>
<extensions>
<kashmir3d:ident></kashmir3d:ident>
<kashmir3d:icon>901001</kashmir3d:icon>
<geographica:icon>4</geographica:icon>
</extensions>
</wpt>
<wpt lat="35.293219" lon="139.052301" iswarning="0">
<ele>702.000000</ele>
<time>2021-10-20T00:43:51Z</time>
<name>🦌トリカブト裏</name>
<cmt></cmt>
<extensions>
<kashmir3d:ident></kashmir3d:ident>
<kashmir3d:icon>901001</kashmir3d:icon>
<geographica:icon>4</geographica:icon>
</extensions>
</wpt>
<wpt lat="35.299264" lon="139.050433" iswarning="0">
<ele>597.000000</ele>
<time>2021-10-24T09:38:37Z</time>
<name>🦌キャンプ場向かい</name>
<cmt></cmt>
<extensions>
<kashmir3d:ident></kashmir3d:ident>
<kashmir3d:icon>901001</kashmir3d:icon>
<geographica:icon>4</geographica:icon>
</extensions>
</wpt>
<wpt lat="35.298047" lon="139.049338" iswarning="0">
<ele>631.000000</ele>
<time>2021-10-20T00:55:58Z</time>
<name>🦌キャンプ場南</name>
<cmt></cmt>
<extensions>
<kashmir3d:ident></kashmir3d:ident>
<kashmir3d:icon>901001</kashmir3d:icon>
<geographica:icon>4</geographica:icon>
</extensions>
</wpt>
<wpt lat="35.309462" lon="139.057096" iswarning="0">
<ele>507.000000</ele>
<time>2021-10-24T01:37:56Z</time>
<name>🦌鉄塔のタツ</name>
<cmt></cmt>
<extensions>
<kashmir3d:ident></kashmir3d:ident>
<kashmir3d:icon>901001</kashmir3d:icon>
<geographica:icon>4</geographica:icon>
</extensions>
</wpt>
<wpt lat="35.305804" lon="139.055972" iswarning="0">
<ele>493.000000</ele>
<time>2021-10-24T08:05:47Z</time>
<name>🦌ストッパー</name>
<cmt></cmt>
<extensions>
<kashmir3d:ident></kashmir3d:ident>
<kashmir3d:icon>901001</kashmir3d:icon>
<geographica:icon>4</geographica:icon>
</extensions>
</wpt>
<wpt lat="35.307217" lon="139.051598" iswarning="0">
<ele>595.000000</ele>
<time>2021-10-24T08:03:57Z</time>
<name>🦌岩清水中</name>
<cmt></cmt>
<extensions>
<kashmir3d:ident></kashmir3d:ident>
<kashmir3d:icon>901001</kashmir3d:icon>
<geographica:icon>4</geographica:icon>
</extensions>
</wpt>
<wpt lat="35.299420" lon="139.046390" iswarning="0">
<ele>685.000000</ele>
<time>2021-10-24T08:08:58Z</time>
<name>🦌沢の上</name>
<cmt></cmt>
<extensions>
<kashmir3d:ident></kashmir3d:ident>
<kashmir3d:icon>901001</kashmir3d:icon>
<geographica:icon>4</geographica:icon>
</extensions>
</wpt>
<wpt lat="35.306360" lon="139.054270" iswarning="0">
<ele>538.000000</ele>
<time>2021-11-03T22:48:24Z</time>
<name>🦌裏赤エル</name>
<cmt></cmt>
<extensions>
<kashmir3d:ident></kashmir3d:ident>
<kashmir3d:icon>901001</kashmir3d:icon>
<geographica:icon>4</geographica:icon>
</extensions>
</wpt>
<wpt lat="35.309220" lon="139.048513" iswarning="0">
<ele>631.000000</ele>
<time>2022-01-05T04:09:01Z</time>
<name>🦌ワイジ奥</name>
<cmt></cmt>
<extensions>
<kashmir3d:ident></kashmir3d:ident>
<kashmir3d:icon>901001</kashmir3d:icon>
<geographica:icon>4</geographica:icon>
</extensions>
</wpt>
<wpt lat="35.305798" lon="139.054232" iswarning="0">
<ele>518.000000</ele>
<time>2021-11-03T22:47:57Z</time>
<name>🦌赤エル</name>
<cmt></cmt>
<extensions>
<kashmir3d:ident></kashmir3d:ident>
<kashmir3d:icon>901001</kashmir3d:icon>
<geographica:icon>4</geographica:icon>
</extensions>
</wpt>
<wpt lat="35.309328" lon="139.057408" iswarning="0">
<ele>501.000000</ele>
<time>2021-11-04T08:03:31Z</time>
<name>階段</name>
<cmt></cmt>
<extensions>
<kashmir3d:ident></kashmir3d:ident>
<kashmir3d:icon>901001</kashmir3d:icon>
<geographica:icon>8</geographica:icon>
</extensions>
</wpt>
<wpt lat="35.295025" lon="139.050255" iswarning="0">
<ele>691.000000</ele>
<time>2021-11-29T07:15:04Z</time>
<name>🦌上唐沢先の上</name>
<cmt></cmt>
<extensions>
<kashmir3d:ident></kashmir3d:ident>
<kashmir3d:icon>901001</kashmir3d:icon>
<geographica:icon>4</geographica:icon>
</extensions>
</wpt>
<wpt lat="35.300446" lon="139.060200" iswarning="0">
<ele>592.000000</ele>
<time>2021-11-13T00:19:56Z</time>
<name>🦌ママッチSP</name>
<cmt></cmt>
<extensions>
<kashmir3d:ident></kashmir3d:ident>
<kashmir3d:icon>901001</kashmir3d:icon>
<geographica:icon>4</geographica:icon>
</extensions>
</wpt>
<wpt lat="35.309674" lon="139.057750" iswarning="0">
<ele>503.000000</ele>
<time>2021-11-13T00:21:19Z</time>
<name>🦌放犬の先</name>
<cmt></cmt>
<extensions>
<kashmir3d:ident></kashmir3d:ident>
<kashmir3d:icon>901001</kashmir3d:icon>
<geographica:icon>4</geographica:icon>
</extensions>
</wpt>
<wpt lat="35.302601" lon="139.044730" iswarning="0">
<ele>762.000000</ele>
<time>2021-11-17T00:06:32Z</time>
<name>🦌ムロ岩の先</name>
<cmt></cmt>
<extensions>
<kashmir3d:ident></kashmir3d:ident>
<kashmir3d:icon>901001</kashmir3d:icon>
<geographica:icon>4</geographica:icon>
</extensions>
</wpt>
<wpt lat="35.300260" lon="139.046538" iswarning="0">
<ele>681.000000</ele>
<time>2021-12-05T22:58:47Z</time>
<name>🦌メキシコ</name>
<cmt></cmt>
<extensions>
<kashmir3d:ident></kashmir3d:ident>
<kashmir3d:icon>901001</kashmir3d:icon>
<geographica:icon>4</geographica:icon>
</extensions>
</wpt>
<wpt lat="35.293447" lon="139.053125" iswarning="0">
<ele>665.000000</ele>
<time>2021-11-29T00:03:15Z</time>
<name>🦌崩れ</name>
<cmt></cmt>
<extensions>
<kashmir3d:ident></kashmir3d:ident>
<kashmir3d:icon>901001</kashmir3d:icon>
<geographica:icon>4</geographica:icon>
</extensions>
</wpt>
<wpt lat="35.305300" lon="139.060464" iswarning="0">
<ele>496.000000</ele>
<time>2021-11-29T00:05:05Z</time>
<name>🦌キーパー</name>
<cmt></cmt>
<extensions>
<kashmir3d:ident></kashmir3d:ident>
<kashmir3d:icon>901001</kashmir3d:icon>
<geographica:icon>4</geographica:icon>
</extensions>
</wpt>
<wpt lat="35.293671" lon="139.054904" iswarning="0">
<ele>653.000000</ele>
<time>2021-11-29T00:03:33Z</time>
<name>🦌崩れの奥</name>
<cmt></cmt>
<extensions>
<kashmir3d:ident></kashmir3d:ident>
<kashmir3d:icon>901001</kashmir3d:icon>
<geographica:icon>4</geographica:icon>
</extensions>
</wpt>
<wpt lat="35.316117" lon="139.060319" iswarning="0">
<ele>369.000000</ele>
<time>2021-11-29T00:04:40Z</time>
<name>🦌フチジリ</name>
<cmt></cmt>
<extensions>
<kashmir3d:ident></kashmir3d:ident>
<kashmir3d:icon>901001</kashmir3d:icon>
<geographica:icon>4</geographica:icon>
</extensions>
</wpt>
<wpt lat="35.300527" lon="139.057240" iswarning="0">
<ele>609.000000</ele>
<time>2021-11-29T00:03:59Z</time>
<name>🦌2番上</name>
<cmt></cmt>
<extensions>
<kashmir3d:ident></kashmir3d:ident>
<kashmir3d:icon>901001</kashmir3d:icon>
<geographica:icon>4</geographica:icon>
</extensions>
</wpt>
<wpt lat="35.295655" lon="139.050321" iswarning="0">
<ele>668.000000</ele>
<time>2021-11-29T00:15:18Z</time>
<name>橋の先登口</name>
<cmt></cmt>
<extensions>
<kashmir3d:ident></kashmir3d:ident>
<kashmir3d:icon>901001</kashmir3d:icon>
<geographica:icon>8</geographica:icon>
</extensions>
</wpt>
<wpt lat="35.304213" lon="139.046478" iswarning="0">
<ele>671.000000</ele>
<time>2021-12-09T00:21:41Z</time>
<name>🦌新トナカイ</name>
<cmt></cmt>
<extensions>
<kashmir3d:ident></kashmir3d:ident>
<kashmir3d:icon>901001</kashmir3d:icon>
<geographica:icon>4</geographica:icon>
</extensions>
</wpt>
<wpt lat="35.306227" lon="139.049396" iswarning="0">
<ele>619.000000</ele>
<time>2021-12-09T00:28:58Z</time>
<name>🦌岩清水索道</name>
<cmt></cmt>
<extensions>
<kashmir3d:ident></kashmir3d:ident>
<kashmir3d:icon>901001</kashmir3d:icon>
<geographica:icon>4</geographica:icon>
</extensions>
</wpt>
<wpt lat="35.293248" lon="139.051692" iswarning="0">
<ele>720.000000</ele>
<time>2021-12-14T09:30:53Z</time>
<name>🦌新小岩</name>
<cmt></cmt>
<extensions>
<kashmir3d:ident></kashmir3d:ident>
<kashmir3d:icon>901001</kashmir3d:icon>
<geographica:icon>4</geographica:icon>
</extensions>
</wpt>
<wpt lat="35.302969" lon="139.054282" iswarning="0">
<ele>514.000000</ele>
<time>2021-12-14T09:45:51Z</time>
<name>🐕暗闇沢放犬</name>
<cmt></cmt>
<extensions>
<kashmir3d:ident></kashmir3d:ident>
<kashmir3d:icon>901001</kashmir3d:icon>
<geographica:icon>5</geographica:icon>
</extensions>
</wpt>
<wpt lat="35.310180" lon="139.059187" iswarning="0">
<ele>484.000000</ele>
<time>2021-12-28T01:22:41Z</time>
<name>🦌撃ち返し下</name>
<cmt></cmt>
<extensions>
<kashmir3d:ident></kashmir3d:ident>
<kashmir3d:icon>901001</kashmir3d:icon>
<geographica:icon>4</geographica:icon>
</extensions>
</wpt>
<wpt lat="35.308819" lon="139.059394" iswarning="0">
<ele>449.000000</ele>
<time>2021-12-23T00:33:54Z</time>
<name>🦌クロスファイア</name>
<cmt></cmt>
<extensions>
<kashmir3d:ident></kashmir3d:ident>
<kashmir3d:icon>901001</kashmir3d:icon>
<geographica:icon>4</geographica:icon>
</extensions>
</wpt>
<wpt lat="35.311704" lon="139.054244" iswarning="0">
<ele>462.000000</ele>
<time>2022-01-07T23:05:50Z</time>
<name>🦌木の束</name>
<cmt></cmt>
<extensions>
<kashmir3d:ident></kashmir3d:ident>
<kashmir3d:icon>901001</kashmir3d:icon>
<geographica:icon>4</geographica:icon>
</extensions>
</wpt>
<wpt lat="35.310622" lon="139.060404" iswarning="0">
<ele>441.000000</ele>
<time>2021-12-15T10:33:52Z</time>
<name>🐾舞台袖</name>
<cmt></cmt>
<extensions>
<kashmir3d:ident></kashmir3d:ident>
<kashmir3d:icon>901001</kashmir3d:icon>
<geographica:icon>5</geographica:icon>
</extensions>
</wpt>
<wpt lat="35.296032" lon="139.055296" iswarning="0">
<ele>598.000000</ele>
<time>2021-12-23T00:21:53Z</time>
<name>🦌交差点下の沢</name>
<cmt></cmt>
<extensions>
<kashmir3d:ident></kashmir3d:ident>
<kashmir3d:icon>901001</kashmir3d:icon>
<geographica:icon>4</geographica:icon>
</extensions>
</wpt>
<wpt lat="35.295121" lon="139.052040" iswarning="0">
<ele>667.000000</ele>
<time>2021-12-27T06:33:04Z</time>
<name>🦌上唐沢手前</name>
<cmt></cmt>
<extensions>
<kashmir3d:ident></kashmir3d:ident>
<kashmir3d:icon>901001</kashmir3d:icon>
<geographica:icon>4</geographica:icon>
</extensions>
</wpt>
<wpt lat="35.293615" lon="139.051895" iswarning="0">
<ele>707.000000</ele>
<time>2021-12-27T06:32:43Z</time>
<name>🦌笹トンネル</name>
<cmt></cmt>
<extensions>
<kashmir3d:ident></kashmir3d:ident>
<kashmir3d:icon>901001</kashmir3d:icon>
<geographica:icon>4</geographica:icon>
</extensions>
</wpt>
<wpt lat="35.307858" lon="139.047546" iswarning="0">
<ele>654.000000</ele>
<time>2022-01-05T04:24:17Z</time>
<name>🦌未知</name>
<cmt></cmt>
<extensions>
<kashmir3d:ident></kashmir3d:ident>
<kashmir3d:icon>901001</kashmir3d:icon>
<geographica:icon>4</geographica:icon>
</extensions>
</wpt>
<wpt lat="35.311048" lon="139.050539" iswarning="0">
<ele>612.000000</ele>
<time>2022-01-05T04:10:42Z</time>
<name>🦌モジャ表</name>
<cmt></cmt>
<extensions>
<kashmir3d:ident></kashmir3d:ident>
<kashmir3d:icon>901001</kashmir3d:icon>
<geographica:icon>4</geographica:icon>
</extensions>
</wpt>
<wpt lat="35.311497" lon="139.050801" iswarning="0">
<ele>601.000000</ele>
<time>2022-01-05T04:10:31Z</time>
<name>🦌モジャモジャ</name>
<cmt></cmt>
<extensions>
<kashmir3d:ident></kashmir3d:ident>
<kashmir3d:icon>901001</kashmir3d:icon>
<geographica:icon>4</geographica:icon>
</extensions>
</wpt>
<wpt lat="35.311923" lon="139.050224" iswarning="0">
<ele>605.000000</ele>
<time>2022-01-05T04:10:22Z</time>
<name>🦌モジャ裏</name>
<cmt></cmt>
<extensions>
<kashmir3d:ident></kashmir3d:ident>
<kashmir3d:icon>901001</kashmir3d:icon>
<geographica:icon>4</geographica:icon>
</extensions>
</wpt>
<wpt lat="35.310751" lon="139.049870" iswarning="0">
<ele>625.000000</ele>
<time>2022-01-05T04:09:30Z</time>
<name>🦌ワイジ手前</name>
<cmt></cmt>
<extensions>
<kashmir3d:ident></kashmir3d:ident>
<kashmir3d:icon>901001</kashmir3d:icon>
<geographica:icon>4</geographica:icon>
</extensions>
</wpt>
<wpt lat="35.310308" lon="139.048963" iswarning="0">
<ele>631.000000</ele>
<time>2022-01-05T04:09:19Z</time>
<name>🦌ワイジ</name>
<cmt></cmt>
<extensions>
<kashmir3d:ident></kashmir3d:ident>
<kashmir3d:icon>901001</kashmir3d:icon>
<geographica:icon>4</geographica:icon>
</extensions>
</wpt>
<wpt lat="35.312637" lon="139.067863" iswarning="0">
<ele>317.000000</ele>
<time>2022-01-10T04:21:35Z</time>
<name>🦌テント</name>
<cmt></cmt>
<extensions>
<kashmir3d:ident></kashmir3d:ident>
<kashmir3d:icon>901001</kashmir3d:icon>
<geographica:icon>4</geographica:icon>
</extensions>
</wpt>
<wpt lat="35.316048" lon="139.066466" iswarning="0">
<ele>340.000000</ele>
<time>2022-01-10T04:21:54Z</time>
<name>🦌抜け</name>
<cmt></cmt>
<extensions>
<kashmir3d:ident></kashmir3d:ident>
<kashmir3d:icon>901001</kashmir3d:icon>
<geographica:icon>4</geographica:icon>
</extensions>
</wpt>
<wpt lat="35.313354" lon="139.067199" iswarning="0">
<ele>350.000000</ele>
<time>2022-01-10T04:22:16Z</time>
<name>🦌ホンダメ尾根下</name>
<cmt></cmt>
<extensions>
<kashmir3d:ident></kashmir3d:ident>
<kashmir3d:icon>901001</kashmir3d:icon>
<geographica:icon>4</geographica:icon>
</extensions>
</wpt>
<wpt lat="35.314139" lon="139.057442" iswarning="0">
<ele>401.000000</ele>
<time>2022-02-02T03:00:42Z</time>
<name>🦌駐車場下</name>
<cmt></cmt>
<extensions>
<kashmir3d:ident></kashmir3d:ident>
<kashmir3d:icon>901001</kashmir3d:icon>
<geographica:icon>4</geographica:icon>
</extensions>
</wpt>
<wpt lat="35.299567" lon="139.047565" iswarning="0">
<ele>640.000000</ele>
<time>2022-02-02T03:00:19Z</time>
<name>🦌キャンプ場の上</name>
<cmt></cmt>
<extensions>
<kashmir3d:ident></kashmir3d:ident>
<kashmir3d:icon>901001</kashmir3d:icon>
<geographica:icon>4</geographica:icon>
</extensions>
</wpt>
<wpt lat="35.302767" lon="139.056771" iswarning="0">
<ele>524.000000</ele>
<time>2022-02-02T03:01:18Z</time>
<name>🦌橋本五差路</name>
<cmt></cmt>
<extensions>
<kashmir3d:ident></kashmir3d:ident>
<kashmir3d:icon>901001</kashmir3d:icon>
<geographica:icon>4</geographica:icon>
</extensions>
</wpt>
<wpt lat="35.317448" lon="139.059872" iswarning="0">
<ele>348.000000</ele>
<time>2022-02-02T03:01:33Z</time>
<name>🦌ライオン下の下</name>
<cmt></cmt>
<extensions>
<kashmir3d:ident></kashmir3d:ident>
<kashmir3d:icon>901001</kashmir3d:icon>
<geographica:icon>4</geographica:icon>
</extensions>
</wpt>
<wpt lat="35.302288" lon="139.053261" iswarning="0">
<ele>524.000000</ele>
<time>2022-02-05T23:45:30Z</time>
<name>🦌キャンプ場渡り</name>
<cmt></cmt>
<extensions>
<kashmir3d:ident></kashmir3d:ident>
<kashmir3d:icon>901001</kashmir3d:icon>
<geographica:icon>4</geographica:icon>
</extensions>
</wpt>
<wpt lat="35.303097" lon="139.055889" iswarning="0">
<ele>505.000000</ele>
<time>2022-02-02T03:01:44Z</time>
<name>🦌矢印看板の上</name>
<cmt></cmt>
<extensions>
<kashmir3d:ident></kashmir3d:ident>
<kashmir3d:icon>901001</kashmir3d:icon>
<geographica:icon>4</geographica:icon>
</extensions>
</wpt>
<wpt lat="35.319853" lon="139.062355" iswarning="0">
<ele>318.000000</ele>
<time>2022-02-22T04:44:06Z</time>
<name>🦌中道1</name>
<cmt></cmt>
<extensions>
<kashmir3d:ident></kashmir3d:ident>
<kashmir3d:icon>901001</kashmir3d:icon>
<geographica:icon>4</geographica:icon>
</extensions>
</wpt>
<wpt lat="35.319069" lon="139.064965" iswarning="0">
<ele>328.000000</ele>
<time>2022-02-22T04:44:05Z</time>
<name>🦌中道2</name>
<cmt></cmt>
<extensions>
<kashmir3d:ident></kashmir3d:ident>
<kashmir3d:icon>901001</kashmir3d:icon>
<geographica:icon>4</geographica:icon>
</extensions>
</wpt>
<wpt lat="35.319451" lon="139.063604" iswarning="0">
<ele>333.000000</ele>
<time>2022-02-22T04:44:15Z</time>
<name>🐕中道放犬</name>
<cmt></cmt>
<extensions>
<kashmir3d:ident></kashmir3d:ident>
<kashmir3d:icon>901001</kashmir3d:icon>
<geographica:icon>5</geographica:icon>
</extensions>
</wpt>
<wpt lat="35.315714" lon="139.067710" iswarning="0">
<ele>333.000000</ele>
<time>2022-02-22T04:44:14Z</time>
<name>🐕中道放犬</name>
<cmt></cmt>
<extensions>
<kashmir3d:ident></kashmir3d:ident>
<kashmir3d:icon>901001</kashmir3d:icon>
<geographica:icon>5</geographica:icon>
</extensions>
</wpt>
<wpt lat="35.316633" lon="139.065579" iswarning="0">
<ele>318.000000</ele>
<time>2022-02-22T04:44:05Z</time>
<name>🦌中道3</name>
<cmt></cmt>
<extensions>
<kashmir3d:ident></kashmir3d:ident>
<kashmir3d:icon>901001</kashmir3d:icon>
<geographica:icon>4</geographica:icon>
</extensions>
</wpt>
<wpt lat="35.314180" lon="139.067391" iswarning="0">
<ele>324.000000</ele>
<time>2022-02-22T04:44:04Z</time>
<name>🦌中道4</name>
<cmt></cmt>
<extensions>
<kashmir3d:ident></kashmir3d:ident>
<kashmir3d:icon>901001</kashmir3d:icon>
<geographica:icon>4</geographica:icon>
</extensions>
</wpt>
<wpt lat="35.318839" lon="139.068138" iswarning="0">
<ele>281.000000</ele>
<time>2022-02-22T04:44:02Z</time>
<name>🦌中道5</name>
<cmt></cmt>
<extensions>
<kashmir3d:ident></kashmir3d:ident>
<kashmir3d:icon>901001</kashmir3d:icon>
<geographica:icon>4</geographica:icon>
</extensions>
</wpt>
<wpt lat="35.320202" lon="139.068723" iswarning="0">
<ele>263.000000</ele>
<time>2022-02-22T04:44:02Z</time>
<name>🦌中道6</name>
<cmt></cmt>
<extensions>
<kashmir3d:ident></kashmir3d:ident>
<kashmir3d:icon>901001</kashmir3d:icon>
<geographica:icon>4</geographica:icon>
</extensions>
</wpt>
<wpt lat="35.316283" lon="139.068911" iswarning="0">
<ele>307.000000</ele>
<time>2022-02-22T04:44:01Z</time>
<name>🦌中道7</name>
<cmt></cmt>
<extensions>
<kashmir3d:ident></kashmir3d:ident>
<kashmir3d:icon>901001</kashmir3d:icon>
<geographica:icon>4</geographica:icon>
</extensions>
</wpt>
<wpt lat="35.317603" lon="139.069592" iswarning="0">
<ele>299.000000</ele>
<time>2022-02-22T04:44:00Z</time>
<name>🦌中道8</name>
<cmt></cmt>
<extensions>
<kashmir3d:ident></kashmir3d:ident>
<kashmir3d:icon>901001</kashmir3d:icon>
<geographica:icon>4</geographica:icon>
</extensions>
</wpt>
<wpt lat="35.316855" lon="139.070059" iswarning="0">
<ele>266.000000</ele>
<time>2022-02-22T04:43:59Z</time>
<name>🦌中道9</name>
<cmt></cmt>
<extensions>
<kashmir3d:ident></kashmir3d:ident>
<kashmir3d:icon>901001</kashmir3d:icon>
<geographica:icon>4</geographica:icon>
</extensions>
</wpt>
<wpt lat="35.318724" lon="139.069613" iswarning="0">
<ele>273.000000</ele>
<time>2022-02-22T04:43:59Z</time>
<name>🦌中道10</name>
<cmt></cmt>
<extensions>
<kashmir3d:ident></kashmir3d:ident>
<kashmir3d:icon>901001</kashmir3d:icon>
<geographica:icon>4</geographica:icon>
</extensions>
</wpt>
<wpt lat="35.318573" lon="139.070789" iswarning="0">
<ele>267.000000</ele>
<time>2022-02-22T04:44:16Z</time>
<name>🦌中道11</name>
<cmt></cmt>
<extensions>
<kashmir3d:ident></kashmir3d:ident>
<kashmir3d:icon>901001</kashmir3d:icon>
<geographica:icon>4</geographica:icon>
</extensions>
</wpt>
<wpt lat="35.318041" lon="139.071961" iswarning="0">
<ele>269.000000</ele>
<time>2022-02-22T04:44:17Z</time>
<name>🦌中道12</name>
<cmt></cmt>
<extensions>
<kashmir3d:ident></kashmir3d:ident>
<kashmir3d:icon>901001</kashmir3d:icon>
<geographica:icon>4</geographica:icon>
</extensions>
</wpt>
<wpt lat="35.319368" lon="139.071825" iswarning="0">
<ele>239.000000</ele>
<time>2022-02-22T04:44:10Z</time>
<name>🦌中道13</name>
<cmt></cmt>
<extensions>
<kashmir3d:ident></kashmir3d:ident>
<kashmir3d:icon>901001</kashmir3d:icon>
<geographica:icon>4</geographica:icon>
</extensions>
</wpt>
<wpt lat="35.319802" lon="139.072745" iswarning="0">
<ele>232.000000</ele>
<time>2022-02-22T04:44:10Z</time>
<name>🦌中道14</name>
<cmt></cmt>
<extensions>
<kashmir3d:ident></kashmir3d:ident>
<kashmir3d:icon>901001</kashmir3d:icon>
<geographica:icon>4</geographica:icon>
</extensions>
</wpt>
<wpt lat="35.316073" lon="139.058895" iswarning="0">
<ele>372.000000</ele>
<time>2022-02-07T00:05:28Z</time>
<name>🦌ライオン下</name>
<cmt></cmt>
<extensions>
<kashmir3d:ident></kashmir3d:ident>
<kashmir3d:icon>901001</kashmir3d:icon>
<geographica:icon>4</geographica:icon>
</extensions>
</wpt>
<wpt lat="35.317007" lon="139.072968" iswarning="0">
<ele>272.000000</ele>
<time>2022-02-22T04:44:09Z</time>
<name>🦌中道15</name>
<cmt></cmt>
<extensions>
<kashmir3d:ident></kashmir3d:ident>
<kashmir3d:icon>901001</kashmir3d:icon>
<geographica:icon>4</geographica:icon>
</extensions>
</wpt>
<wpt lat="35.317580" lon="139.082871" iswarning="0">
<ele>152.000000</ele>
<time>2022-02-11T07:06:24Z</time>
<name>木の橋</name>
<cmt></cmt>
<extensions>
<kashmir3d:ident></kashmir3d:ident>
<kashmir3d:icon>901001</kashmir3d:icon>
<geographica:icon>8</geographica:icon>
</extensions>
</wpt>
<wpt lat="35.316787" lon="139.081200" iswarning="0">
<ele>170.000000</ele>
<time>2022-02-11T07:18:12Z</time>
<name>🦌マムシY沢</name>
<cmt></cmt>
<extensions>
<kashmir3d:ident></kashmir3d:ident>
<kashmir3d:icon>901001</kashmir3d:icon>
<geographica:icon>4</geographica:icon>
</extensions>
</wpt>
<wpt lat="35.317961" lon="139.085064" iswarning="0">
<ele>130.000000</ele>
<time>2022-02-11T07:10:53Z</time>
<name>🅿️車止め</name>
<cmt></cmt>
<extensions>
<kashmir3d:ident></kashmir3d:ident>
<kashmir3d:icon>901001</kashmir3d:icon>
<geographica:icon>0</geographica:icon>
</extensions>
</wpt>
<wpt lat="35.317325" lon="139.085835" iswarning="0">
<ele>123.000000</ele>
<time>2022-02-11T07:18:02Z</time>
<name>🅿️マムシ沢下</name>
<cmt></cmt>
<extensions>
<kashmir3d:ident></kashmir3d:ident>
<kashmir3d:icon>901001</kashmir3d:icon>
<geographica:icon>0</geographica:icon>
</extensions>
</wpt>
<wpt lat="35.322175" lon="139.063472" iswarning="0">
<ele>317.000000</ele>
<time>2022-02-13T08:25:18Z</time>
<name>🌲柄沢林道</name>
<cmt></cmt>
<extensions>
<kashmir3d:ident></kashmir3d:ident>
<kashmir3d:icon>901001</kashmir3d:icon>
<geographica:icon>0</geographica:icon>
</extensions>
</wpt>
<wpt lat="35.326574" lon="139.072067" iswarning="0">
<ele>205.000000</ele>
<time>2022-02-13T08:24:52Z</time>
<name>🌲柄沢林道登口</name>
<cmt></cmt>
<extensions>
<kashmir3d:ident></kashmir3d:ident>
<kashmir3d:icon>901001</kashmir3d:icon>
<geographica:icon>0</geographica:icon>
</extensions>
</wpt>
<wpt lat="35.323029" lon="139.061593" iswarning="0">
<ele>369.000000</ele>
<time>2022-02-13T07:11:46Z</time>
<name>🦌明神林道J</name>
<cmt></cmt>
<extensions>
<kashmir3d:ident></kashmir3d:ident>
<kashmir3d:icon>901001</kashmir3d:icon>
<geographica:icon>4</geographica:icon>
</extensions>
</wpt>
<wpt lat="35.321478" lon="139.062372" iswarning="1">
<ele>345.000000</ele>
<time>2022-02-13T07:11:28Z</time>
<name>🦌明神林道A</name>
<cmt></cmt>
<extensions>
<kashmir3d:ident></kashmir3d:ident>
<kashmir3d:icon>901001</kashmir3d:icon>
<geographica:icon>4</geographica:icon>
</extensions>
</wpt>
<wpt lat="35.320388" lon="139.061123" iswarning="1">
<ele>342.000000</ele>
<time>2022-02-13T07:11:00Z</time>
<name>🦌明神林道B</name>
<cmt></cmt>
<extensions>
<kashmir3d:ident></kashmir3d:ident>
<kashmir3d:icon>901001</kashmir3d:icon>
<geographica:icon>4</geographica:icon>
</extensions>
</wpt>
<wpt lat="35.321868" lon="139.059252" iswarning="0">
<ele>386.000000</ele>
<time>2022-02-13T07:10:33Z</time>
<name>🦌明神林道I</name>
<cmt></cmt>
<extensions>
<kashmir3d:ident></kashmir3d:ident>
<kashmir3d:icon>901001</kashmir3d:icon>
<geographica:icon>4</geographica:icon>
</extensions>
</wpt>
<wpt lat="35.319762" lon="139.059219" iswarning="0">
<ele>382.000000</ele>
<time>2022-02-13T07:09:51Z</time>
<name>🦌明神林道C</name>
<cmt></cmt>
<extensions>
<kashmir3d:ident></kashmir3d:ident>
<kashmir3d:icon>901001</kashmir3d:icon>
<geographica:icon>4</geographica:icon>
</extensions>
</wpt>
<wpt lat="35.318212" lon="139.057857" iswarning="0">
<ele>404.000000</ele>
<time>2022-02-13T07:09:24Z</time>
<name>🦌明神林道D</name>
<cmt></cmt>
<extensions>
<kashmir3d:ident></kashmir3d:ident>
<kashmir3d:icon>901001</kashmir3d:icon>
<geographica:icon>4</geographica:icon>
</extensions>
</wpt>
<wpt lat="35.320951" lon="139.056642" iswarning="0">
<ele>380.000000</ele>
<time>2022-02-13T08:18:52Z</time>
<name>明神林道Gスポ抜け</name>
<cmt></cmt>
<extensions>
<kashmir3d:ident></kashmir3d:ident>
<kashmir3d:icon>901001</kashmir3d:icon>
<geographica:icon>9</geographica:icon>
</extensions>
</wpt>
<wpt lat="35.320248" lon="139.055690" iswarning="0">
<ele>400.000000</ele>
<time>2022-02-13T07:08:28Z</time>
<name>🦌明神林道Gスポット</name>
<cmt></cmt>
<extensions>
<kashmir3d:ident></kashmir3d:ident>
<kashmir3d:icon>901001</kashmir3d:icon>
<geographica:icon>4</geographica:icon>
</extensions>
</wpt>
<wpt lat="35.318186" lon="139.056344" iswarning="0">
<ele>430.000000</ele>
<time>2022-02-13T07:07:50Z</time>
<name>🦌明神林道E</name>
<cmt></cmt>
<extensions>
<kashmir3d:ident></kashmir3d:ident>
<kashmir3d:icon>901001</kashmir3d:icon>
<geographica:icon>4</geographica:icon>
</extensions>
</wpt>
<wpt lat="35.318415" lon="139.055204" iswarning="0">
<ele>442.000000</ele>
<time>2022-02-13T07:07:24Z</time>
<name>🦌明神林道F</name>
<cmt></cmt>
<extensions>
<kashmir3d:ident></kashmir3d:ident>
<kashmir3d:icon>901001</kashmir3d:icon>
<geographica:icon>4</geographica:icon>
</extensions>
</wpt>
<wpt lat="35.319858" lon="139.053609" iswarning="0">
<ele>383.000000</ele>
<time>2022-02-13T07:07:03Z</time>
<name>🦌明神林道H</name>
<cmt></cmt>
<extensions>
<kashmir3d:ident></kashmir3d:ident>
<kashmir3d:icon>901001</kashmir3d:icon>
<geographica:icon>4</geographica:icon>
</extensions>
</wpt>
<wpt lat="35.312362" lon="139.038758" iswarning="0">
<ele>370.000000</ele>
<time>2022-02-13T08:37:09Z</time>
<name>🌲川入林道</name>
<cmt></cmt>
<extensions>
<kashmir3d:ident></kashmir3d:ident>
<kashmir3d:icon>901001</kashmir3d:icon>
<geographica:icon>0</geographica:icon>
</extensions>
</wpt>
<wpt lat="35.322631" lon="139.054975" iswarning="0">
<ele>331.000000</ele>
<time>2022-02-13T08:29:13Z</time>
<name>🌲関場林道</name>
<cmt></cmt>
<extensions>
<kashmir3d:ident></kashmir3d:ident>
<kashmir3d:icon>901001</kashmir3d:icon>
<geographica:icon>0</geographica:icon>
</extensions>
</wpt>
<wpt lat="35.321089" lon="139.054799" iswarning="0">
<ele>353.000000</ele>
<time>2022-02-13T08:27:49Z</time>
<name>🌲前田林道</name>
<cmt></cmt>
<extensions>
<kashmir3d:ident></kashmir3d:ident>
<kashmir3d:icon>901001</kashmir3d:icon>
<geographica:icon>0</geographica:icon>
</extensions>
</wpt>
<wpt lat="35.310822" lon="139.039578" iswarning="0">
<ele>392.000000</ele>
<time>2022-02-13T07:32:00Z</time>
<name>ムロ嚙止</name>
<cmt></cmt>
<extensions>
<kashmir3d:ident></kashmir3d:ident>
<kashmir3d:icon>901001</kashmir3d:icon>
<geographica:icon>21</geographica:icon>
</extensions>
</wpt>
<wpt lat="35.323957" lon="139.062569" iswarning="0">
<ele>348.000000</ele>
<time>2022-02-22T04:52:03Z</time>
<name>🐟10</name>
<cmt></cmt>
<extensions>
<kashmir3d:ident></kashmir3d:ident>
<kashmir3d:icon>901001</kashmir3d:icon>
<geographica:icon>1</geographica:icon>
</extensions>
</wpt>
<wpt lat="35.323050" lon="139.064323" iswarning="0">
<ele>316.000000</ele>
<time>2022-02-22T04:53:08Z</time>
<name>🐟11</name>
<cmt></cmt>
<extensions>
<kashmir3d:ident></kashmir3d:ident>
<kashmir3d:icon>901001</kashmir3d:icon>
<geographica:icon>1</geographica:icon>
</extensions>
</wpt>
<wpt lat="35.366340" lon="139.082476" iswarning="0">
<ele>247.000000</ele>
<time>2022-02-15T07:36:34Z</time>
<name>罠</name>
<cmt></cmt>
<extensions>
<kashmir3d:ident></kashmir3d:ident>
<kashmir3d:icon>901001</kashmir3d:icon>
<geographica:icon>0</geographica:icon>
</extensions>
</wpt>
<wpt lat="35.366477" lon="139.082415" iswarning="0">
<ele>252.000000</ele>
<time>2022-02-15T07:33:55Z</time>
<name>罠</name>
<cmt></cmt>
<extensions>
<kashmir3d:ident></kashmir3d:ident>
<kashmir3d:icon>901001</kashmir3d:icon>
<geographica:icon>0</geographica:icon>
</extensions>
</wpt>
<wpt lat="35.324508" lon="139.066130" iswarning="0">
<ele>276.000000</ele>
<time>2022-02-22T04:54:12Z</time>
<name>🐟12</name>
<cmt></cmt>
<extensions>
<kashmir3d:ident></kashmir3d:ident>
<kashmir3d:icon>901001</kashmir3d:icon>
<geographica:icon>1</geographica:icon>
</extensions>
</wpt>
<wpt lat="35.326511" lon="139.066344" iswarning="0">
<ele>277.000000</ele>
<time>2022-02-22T04:55:02Z</time>
<name>🐟13</name>
<cmt></cmt>
<extensions>
<kashmir3d:ident></kashmir3d:ident>
<kashmir3d:icon>901001</kashmir3d:icon>
<geographica:icon>1</geographica:icon>
</extensions>
</wpt>
<wpt lat="35.328149" lon="139.064506" iswarning="0">
<ele>219.000000</ele>
<time>2022-02-22T04:55:56Z</time>
<name>🐟14</name>
<cmt></cmt>
<extensions>
<kashmir3d:ident></kashmir3d:ident>
<kashmir3d:icon>901001</kashmir3d:icon>
<geographica:icon>1</geographica:icon>
</extensions>
</wpt>
<wpt lat="35.326562" lon="139.062144" iswarning="0">
<ele>268.000000</ele>
<time>2022-02-22T04:56:28Z</time>
<name>🐟15</name>
<cmt></cmt>
<extensions>
<kashmir3d:ident></kashmir3d:ident>
<kashmir3d:icon>901001</kashmir3d:icon>
<geographica:icon>1</geographica:icon>
</extensions>
</wpt>
<wpt lat="35.325338" lon="139.061880" iswarning="0">
<ele>272.000000</ele>
<time>2022-02-22T04:56:51Z</time>
<name>🐟16</name>
<cmt></cmt>
<extensions>
<kashmir3d:ident></kashmir3d:ident>
<kashmir3d:icon>901001</kashmir3d:icon>
<geographica:icon>1</geographica:icon>
</extensions>
</wpt>
<wpt lat="35.324821" lon="139.059614" iswarning="0">
<ele>291.000000</ele>
<time>2022-02-22T04:57:19Z</time>
<name>🐟17</name>
<cmt></cmt>
<extensions>
<kashmir3d:ident></kashmir3d:ident>
<kashmir3d:icon>901001</kashmir3d:icon>
<geographica:icon>1</geographica:icon>
</extensions>
</wpt>
<wpt lat="35.322945" lon="139.057507" iswarning="0">
<ele>319.000000</ele>
<time>2022-02-22T04:57:54Z</time>
<name>🐟18</name>
<cmt></cmt>
<extensions>
<kashmir3d:ident></kashmir3d:ident>
<kashmir3d:icon>901001</kashmir3d:icon>
<geographica:icon>1</geographica:icon>
</extensions>
</wpt>
<wpt lat="35.321453" lon="139.056833" iswarning="0">
<ele>365.000000</ele>
<time>2022-02-22T04:58:29Z</time>
<name>🐟19</name>
<cmt></cmt>
<extensions>
<kashmir3d:ident></kashmir3d:ident>
<kashmir3d:icon>901001</kashmir3d:icon>
<geographica:icon>1</geographica:icon>
</extensions>
</wpt>
<wpt lat="35.320263" lon="139.053527" iswarning="0">
<ele>373.000000</ele>
<time>2022-02-22T05:41:32Z</time>
<name>🐕鱒釣放犬</name>
<cmt></cmt>
<extensions>
<kashmir3d:ident></kashmir3d:ident>
<kashmir3d:icon>901001</kashmir3d:icon>
<geographica:icon>5</geographica:icon>
</extensions>
</wpt>
<wpt lat="35.324287" lon="139.063039" iswarning="0">
<ele>343.000000</ele>
<time>2022-02-22T05:59:12Z</time>
<name>🐕鱒釣手前放犬</name>
<cmt></cmt>
<extensions>
<kashmir3d:ident></kashmir3d:ident>
<kashmir3d:icon>901001</kashmir3d:icon>
<geographica:icon>5</geographica:icon>
</extensions>
</wpt>
<wpt lat="35.323119" lon="139.059807" iswarning="0">
<ele>340.000000</ele>
<time>2022-02-22T05:01:36Z</time>
<name>🐟20</name>
<cmt></cmt>
<extensions>
<kashmir3d:ident></kashmir3d:ident>
<kashmir3d:icon>901001</kashmir3d:icon>
<geographica:icon>1</geographica:icon>
</extensions>
</wpt>
<wpt lat="35.305038" lon="139.065029" iswarning="0">
<ele>519.000000</ele>
<time>2022-02-22T05:38:20Z</time>
<name>🐕桧山口放犬</name>
<cmt></cmt>
<extensions>
<kashmir3d:ident></kashmir3d:ident>
<kashmir3d:icon>901001</kashmir3d:icon>
<geographica:icon>5</geographica:icon>
</extensions>
</wpt>
<wpt lat="35.304832" lon="139.064445" iswarning="0">
<ele>518.000000</ele>
<time>2022-02-22T05:39:41Z</time>
<name>21</name>
<cmt></cmt>
<extensions>
<kashmir3d:ident></kashmir3d:ident>
<kashmir3d:icon>901001</kashmir3d:icon>
<geographica:icon>10</geographica:icon>
</extensions>
</wpt>
<wpt lat="35.304639" lon="139.062488" iswarning="0">
<ele>502.000000</ele>
<time>2022-02-22T05:40:14Z</time>
<name>22</name>
<cmt></cmt>
<extensions>
<kashmir3d:ident></kashmir3d:ident>
<kashmir3d:icon>901001</kashmir3d:icon>
<geographica:icon>10</geographica:icon>
</extensions>
</wpt>
<wpt lat="35.305817" lon="139.061008" iswarning="0">
<ele>494.000000</ele>
<time>2022-02-22T05:40:20Z</time>
<name>23</name>
<cmt></cmt>
<extensions>
<kashmir3d:ident></kashmir3d:ident>
<kashmir3d:icon>901001</kashmir3d:icon>
<geographica:icon>10</geographica:icon>
</extensions>
</wpt>
<wpt lat="35.304759" lon="139.056292" iswarning="0">
<ele>479.000000</ele>
<time>2022-02-22T05:38:58Z</time>
<name>🐕ゲート先放犬</name>
<cmt></cmt>
<extensions>
<kashmir3d:ident></kashmir3d:ident>
<kashmir3d:icon>901001</kashmir3d:icon>
<geographica:icon>5</geographica:icon>
</extensions>
</wpt>
<wpt lat="35.307019" lon="139.057942" iswarning="0">
<ele>449.000000</ele>
<time>2022-02-22T05:40:30Z</time>
<name>24</name>
<cmt></cmt>
<extensions>
<kashmir3d:ident></kashmir3d:ident>
<kashmir3d:icon>901001</kashmir3d:icon>
<geographica:icon>10</geographica:icon>
</extensions>
</wpt>
<wpt lat="35.308262" lon="139.061565" iswarning="0">
<ele>403.000000</ele>
<time>2022-02-22T05:40:34Z</time>
<name>25</name>
<cmt></cmt>
<extensions>
<kashmir3d:ident></kashmir3d:ident>
<kashmir3d:icon>901001</kashmir3d:icon>
<geographica:icon>10</geographica:icon>
</extensions>
</wpt>
<wpt lat="35.310568" lon="139.063122" iswarning="0">
<ele>379.000000</ele>
<time>2022-02-22T05:40:46Z</time>
<name>27</name>
<cmt></cmt>
<extensions>
<kashmir3d:ident></kashmir3d:ident>
<kashmir3d:icon>901001</kashmir3d:icon>
<geographica:icon>10</geographica:icon>
</extensions>
</wpt>
<wpt lat="35.312294" lon="139.064256" iswarning="0">
<ele>355.000000</ele>
<time>2022-02-22T05:40:58Z</time>
<name>28</name>
<cmt></cmt>
<extensions>
<kashmir3d:ident></kashmir3d:ident>
<kashmir3d:icon>901001</kashmir3d:icon>
<geographica:icon>10</geographica:icon>
</extensions>
</wpt>
<wpt lat="35.312200" lon="139.066806" iswarning="0">
<ele>356.000000</ele>
<time>2022-02-22T05:40:52Z</time>
<name>29</name>
<cmt></cmt>
<extensions>
<kashmir3d:ident></kashmir3d:ident>
<kashmir3d:icon>901001</kashmir3d:icon>
<geographica:icon>10</geographica:icon>
</extensions>
</wpt>
<wpt lat="35.308096" lon="139.067874" iswarning="0">
<ele>449.000000</ele>
<time>2022-02-22T05:41:11Z</time>
<name>禁猟31</name>
<cmt></cmt>
<extensions>
<kashmir3d:ident></kashmir3d:ident>
<kashmir3d:icon>901001</kashmir3d:icon>
<geographica:icon>10</geographica:icon>
</extensions>
</wpt>
<wpt lat="35.313468" lon="139.071686" iswarning="0">
<ele>327.000000</ele>
<time>2022-02-22T05:41:16Z</time>
<name>禁猟32</name>
<cmt></cmt>
<extensions>
<kashmir3d:ident></kashmir3d:ident>
<kashmir3d:icon>901001</kashmir3d:icon>
<geographica:icon>10</geographica:icon>
</extensions>
</wpt>
<wpt lat="35.322805" lon="139.062642" iswarning="0">
<ele>352.000000</ele>
<time>2022-02-25T09:15:03Z</time>
<name>🐟21</name>
<cmt></cmt>
<extensions>
<kashmir3d:ident></kashmir3d:ident>
<kashmir3d:icon>901001</kashmir3d:icon>
<geographica:icon>1</geographica:icon>
</extensions>
</wpt>
<wpt lat="35.323256" lon="139.066794" iswarning="0">
<ele>289.000000</ele>
<time>2022-02-25T09:15:29Z</time>
<name>🐟22</name>
<cmt></cmt>
<extensions>
<kashmir3d:ident></kashmir3d:ident>
<kashmir3d:icon>901001</kashmir3d:icon>
<geographica:icon>1</geographica:icon>
</extensions>
</wpt>
<wpt lat="35.323830" lon="139.069370" iswarning="0">
<ele>270.000000</ele>
<time>2022-02-25T09:16:04Z</time>
<name>🐟23</name>
<cmt></cmt>
<extensions>
<kashmir3d:ident></kashmir3d:ident>
<kashmir3d:icon>901001</kashmir3d:icon>
<geographica:icon>1</geographica:icon>
</extensions>
</wpt>
<wpt lat="35.308130" lon="139.063604" iswarning="0">
<ele>446.000000</ele>
<time>2022-02-25T09:21:50Z</time>
<name>33</name>
<cmt></cmt>
<extensions>
<kashmir3d:ident></kashmir3d:ident>
<kashmir3d:icon>901001</kashmir3d:icon>
<geographica:icon>10</geographica:icon>
</extensions>
</wpt>
<wpt lat="35.310588" lon="139.067512" iswarning="0">
<ele>386.000000</ele>
<time>2022-02-25T09:20:10Z</time>
<name>30</name>
<cmt></cmt>
<extensions>
<kashmir3d:ident></kashmir3d:ident>
<kashmir3d:icon>901001</kashmir3d:icon>
<geographica:icon>10</geographica:icon>
</extensions>
</wpt>
<wpt lat="35.309129" lon="139.064001" iswarning="0">
<ele>429.000000</ele>
<time>2022-02-25T09:19:37Z</time>
<name>26</name>
<cmt></cmt>
<extensions>
<kashmir3d:ident></kashmir3d:ident>
<kashmir3d:icon>901001</kashmir3d:icon>
<geographica:icon>10</geographica:icon>
</extensions>
</wpt>
<wpt lat="35.295160" lon="139.063765" iswarning="0">
<ele>624.000000</ele>
<time>2022-07-24T04:28:53Z</time>
<name>🌻new 1</name>
<cmt></cmt>
<extensions>
<kashmir3d:ident></kashmir3d:ident>
<kashmir3d:icon>901001</kashmir3d:icon>
<geographica:icon>4</geographica:icon>
</extensions>
</wpt>
<wpt lat="35.296507" lon="139.058704" iswarning="0">
<ele>581.000000</ele>
<time>2022-07-24T04:29:01Z</time>
<name>🌻new 2</name>
<cmt></cmt>
<extensions>
<kashmir3d:ident></kashmir3d:ident>
<kashmir3d:icon>901001</kashmir3d:icon>
<geographica:icon>4</geographica:icon>
</extensions>
</wpt>
<wpt lat="35.295435" lon="139.055990" iswarning="0">
<ele>630.000000</ele>
<time>2022-07-24T04:29:07Z</time>
<name>🌻new 3</name>
<cmt></cmt>
<extensions>
<kashmir3d:ident></kashmir3d:ident>
<kashmir3d:icon>901001</kashmir3d:icon>
<geographica:icon>4</geographica:icon>
</extensions>
</wpt>
<wpt lat="35.294870" lon="139.052666" iswarning="0">
<ele>691.000000</ele>
<time>2022-07-24T04:29:14Z</time>
<name>🌻new 4</name>
<cmt></cmt>
<extensions>
<kashmir3d:ident></kashmir3d:ident>
<kashmir3d:icon>901001</kashmir3d:icon>
<geographica:icon>4</geographica:icon>
</extensions>
</wpt>
<wpt lat="35.294251" lon="139.049203" iswarning="0">
<ele>720.000000</ele>
<time>2022-07-24T04:29:25Z</time>
<name>🌻new 5</name>
<cmt></cmt>
<extensions>
<kashmir3d:ident></kashmir3d:ident>
<kashmir3d:icon>901001</kashmir3d:icon>
<geographica:icon>4</geographica:icon>
</extensions>
</wpt>
<wpt lat="35.292995" lon="139.046280" iswarning="0">
<ele>779.000000</ele>
<time>2022-07-24T04:29:39Z</time>
<name>🌻new 6</name>
<cmt></cmt>
<extensions>
<kashmir3d:ident></kashmir3d:ident>
<kashmir3d:icon>901001</kashmir3d:icon>
<geographica:icon>4</geographica:icon>
</extensions>
</wpt>
<wpt lat="35.290619" lon="139.040715" iswarning="0">
<ele>840.000000</ele>
<time>2022-07-24T04:30:38Z</time>
<name>🌻new 7</name>
<cmt></cmt>
<extensions>
<kashmir3d:ident></kashmir3d:ident>
<kashmir3d:icon>901001</kashmir3d:icon>
<geographica:icon>4</geographica:icon>
</extensions>
</wpt>
<wpt lat="35.286432" lon="139.036616" iswarning="0">
<ele>868.000000</ele>
<time>2022-07-24T04:31:06Z</time>
<name>🌻new 8</name>
<cmt></cmt>
<extensions>
<kashmir3d:ident></kashmir3d:ident>
<kashmir3d:icon>901001</kashmir3d:icon>
<geographica:icon>4</geographica:icon>
</extensions>
</wpt>
<wpt lat="35.283703" lon="139.050025" iswarning="0">
<ele>1084.000000</ele>
<time>2022-06-30T07:44:28Z</time>
<name>🌻new 9</name>
<cmt></cmt>
<extensions>
<kashmir3d:ident></kashmir3d:ident>
<kashmir3d:icon>901001</kashmir3d:icon>
<geographica:icon>4</geographica:icon>
</extensions>
</wpt>
<wpt lat="35.283761" lon="139.037534" iswarning="0">
<ele>832.000000</ele>
<time>2022-07-24T04:31:19Z</time>
<name>🐕new 放犬上</name>
<cmt></cmt>
<extensions>
<kashmir3d:ident></kashmir3d:ident>
<kashmir3d:icon>901001</kashmir3d:icon>
<geographica:icon>5</geographica:icon>
</extensions>
</wpt>
<wpt lat="35.290672" lon="139.041353" iswarning="0">
<ele>818.000000</ele>
<time>2022-07-24T04:30:28Z</time>
<name>🐕new放犬下</name>
<cmt></cmt>
<extensions>
<kashmir3d:ident></kashmir3d:ident>
<kashmir3d:icon>901001</kashmir3d:icon>
<geographica:icon>5</geographica:icon>
</extensions>
</wpt>
<wpt lat="35.284022" lon="139.035483" iswarning="0">
<ele>822.000000</ele>
<time>2022-07-24T04:31:31Z</time>
<name>7/3登山口</name>
<cmt></cmt>
<extensions>
<kashmir3d:ident></kashmir3d:ident>
<kashmir3d:icon>901001</kashmir3d:icon>
<geographica:icon>0</geographica:icon>
</extensions>
</wpt>
<wpt lat="35.294548" lon="139.046561" iswarning="0">
<ele>712.000000</ele>
<time>2022-07-08T23:17:47Z</time>
<name>上逆尾橋</name>
<cmt></cmt>
<extensions>
<kashmir3d:ident></kashmir3d:ident>
<kashmir3d:icon>901001</kashmir3d:icon>
<geographica:icon>7</geographica:icon>
</extensions>
</wpt>
<wpt lat="35.293137" lon="139.043388" iswarning="0">
<ele>767.000000</ele>
<time>2022-07-24T05:44:56Z</time>
<name>中尾沢入口•駐車場</name>
<cmt></cmt>
<extensions>
<kashmir3d:ident></kashmir3d:ident>
<kashmir3d:icon>901001</kashmir3d:icon>
<geographica:icon>8</geographica:icon>
</extensions>
</wpt>
<wpt lat="35.293040" lon="139.044523" iswarning="0">
<ele>752.000000</ele>
<time>2022-07-03T06:56:25Z</time>
<name>奥逆尾橋</name>
<cmt></cmt>
<extensions>
<kashmir3d:ident></kashmir3d:ident>
<kashmir3d:icon>901001</kashmir3d:icon>
<geographica:icon>7</geographica:icon>
</extensions>
</wpt>
<wpt lat="35.287952" lon="139.039170" iswarning="0">
<ele>871.000000</ele>
<time>2022-07-11T04:05:12Z</time>
<name>崩向かい広場</name>
<cmt></cmt>
<extensions>
<kashmir3d:ident></kashmir3d:ident>
<kashmir3d:icon>901001</kashmir3d:icon>
<geographica:icon>8</geographica:icon>
</extensions>
</wpt>
<wpt lat="35.282866" lon="139.034085" iswarning="0">
<ele>818.000000</ele>
<time>2022-07-08T00:30:51Z</time>
<name>明神登山口</name>
<cmt></cmt>
<extensions>
<kashmir3d:ident></kashmir3d:ident>
<kashmir3d:icon>901001</kashmir3d:icon>
<geographica:icon>8</geographica:icon>
</extensions>
</wpt>
<wpt lat="35.288738" lon="139.038220" iswarning="0">
<ele>854.000000</ele>
<time>2022-07-24T04:38:28Z</time>
<name>暗闇岳方面入口</name>
<cmt></cmt>
<extensions>
<kashmir3d:ident></kashmir3d:ident>
<kashmir3d:icon>901001</kashmir3d:icon>
<geographica:icon>8</geographica:icon>
</extensions>
</wpt>
<wpt lat="35.281327" lon="139.035810" iswarning="0">
<ele>809.000000</ele>
<time>2022-07-25T02:19:53Z</time>
<name>最後の堰堤</name>
<cmt></cmt>
<extensions>
<kashmir3d:ident></kashmir3d:ident>
<kashmir3d:icon>901001</kashmir3d:icon>
<geographica:icon>8</geographica:icon>
</extensions>
</wpt>
<wpt lat="35.289844" lon="139.043487" iswarning="0">
<ele>836.000000</ele>
<time>2022-07-24T05:44:06Z</time>
<name>索道終点</name>
<cmt></cmt>
<extensions>
<kashmir3d:ident></kashmir3d:ident>
<kashmir3d:icon>901001</kashmir3d:icon>
<geographica:icon>8</geographica:icon>
</extensions>
</wpt>
<wpt lat="35.295164" lon="139.048948" iswarning="0">
<ele>672.000000</ele>
<time>2022-07-08T23:14:43Z</time>
<name>逆尾橋</name>
<cmt></cmt>
<extensions>
<kashmir3d:ident></kashmir3d:ident>
<kashmir3d:icon>901001</kashmir3d:icon>
<geographica:icon>7</geographica:icon>
</extensions>
</wpt>
<wpt lat="35.293681" lon="139.045311" iswarning="0">
<ele>734.000000</ele>
<time>2022-07-03T06:57:46Z</time>
<name>💧中尾沢</name>
<cmt></cmt>
<extensions>
<kashmir3d:ident></kashmir3d:ident>
<kashmir3d:icon>901001</kashmir3d:icon>
<geographica:icon>1</geographica:icon>
</extensions>
</wpt>
<wpt lat="35.286305" lon="139.040613" iswarning="0">
<ele>926.000000</ele>
<time>2022-07-24T04:33:25Z</time>
<name>🦌TOP</name>
<cmt></cmt>
<extensions>
<kashmir3d:ident></kashmir3d:ident>
<kashmir3d:icon>901001</kashmir3d:icon>
<geographica:icon>10</geographica:icon>
</extensions>
</wpt>
<wpt lat="35.289301" lon="139.040900" iswarning="0">
<ele>850.000000</ele>
<time>2022-07-24T04:32:31Z</time>
<name>🦌中尾沢上</name>
<cmt></cmt>
<extensions>
<kashmir3d:ident></kashmir3d:ident>
<kashmir3d:icon>901001</kashmir3d:icon>
<geographica:icon>10</geographica:icon>
</extensions>
</wpt>
<wpt lat="35.291709" lon="139.041776" iswarning="0">
<ele>806.000000</ele>
<time>2022-07-24T04:31:59Z</time>
<name>🦌中尾沢下</name>
<cmt></cmt>
<extensions>
<kashmir3d:ident></kashmir3d:ident>
<kashmir3d:icon>901001</kashmir3d:icon>
<geographica:icon>10</geographica:icon>
</extensions>
</wpt>
<wpt lat="35.290789" lon="139.041065" iswarning="0">
<ele>829.000000</ele>
<time>2022-07-24T04:32:10Z</time>
<name>🦌中尾沢中</name>
<cmt></cmt>
<extensions>
<kashmir3d:ident></kashmir3d:ident>
<kashmir3d:icon>901001</kashmir3d:icon>
<geographica:icon>10</geographica:icon>
</extensions>
</wpt>
<wpt lat="35.289088" lon="139.039805" iswarning="0">
<ele>836.000000</ele>
<time>2022-07-24T05:33:22Z</time>
<name>🦌中尾沢撃ち返し</name>
<cmt></cmt>
<extensions>
<kashmir3d:ident></kashmir3d:ident>
<kashmir3d:icon>901001</kashmir3d:icon>
<geographica:icon>10</geographica:icon>
</extensions>
</wpt>
<wpt lat="35.291350" lon="139.045840" iswarning="0">
<ele>799.000000</ele>
<time>2022-07-24T04:34:10Z</time>
<name>🦌索道下</name>
<cmt></cmt>
<extensions>
<kashmir3d:ident></kashmir3d:ident>
<kashmir3d:icon>901001</kashmir3d:icon>
<geographica:icon>10</geographica:icon>
</extensions>
</wpt>
<wpt lat="35.290611" lon="139.044884" iswarning="0">
<ele>805.000000</ele>
<time>2022-07-24T04:34:00Z</time>
<name>🦌索道中</name>
<cmt></cmt>
<extensions>
<kashmir3d:ident></kashmir3d:ident>
<kashmir3d:icon>901001</kashmir3d:icon>
<geographica:icon>10</geographica:icon>
</extensions>
</wpt>
<wpt lat="35.289951" lon="139.044461" iswarning="0">
<ele>816.000000</ele>
<time>2022-07-24T04:50:41Z</time>
<name>🦌索道上広場</name>
<cmt></cmt>
<extensions>
<kashmir3d:ident></kashmir3d:ident>
<kashmir3d:icon>901001</kashmir3d:icon>
<geographica:icon>10</geographica:icon>
</extensions>
</wpt>
<wpt lat="35.292920" lon="139.043418" iswarning="0">
<ele>776.000000</ele>
<time>2022-07-24T07:49:37Z</time>
<name>🦌駐車場上</name>
<cmt></cmt>
<extensions>
<kashmir3d:ident></kashmir3d:ident>
<kashmir3d:icon>901001</kashmir3d:icon>
<geographica:icon>10</geographica:icon>
</extensions>
</wpt>
<wpt lat="35.287653" lon="139.040227" iswarning="0">
<ele>884.000000</ele>
<time>2022-07-25T02:53:15Z</time>
<name>崩れ</name>
<cmt></cmt>
<extensions>
<kashmir3d:ident></kashmir3d:ident>
<kashmir3d:icon>901001</kashmir3d:icon>
<geographica:icon>15</geographica:icon>
</extensions>
</wpt>
<wpt lat="35.285176" lon="139.042669" iswarning="0">
<ele>961.000000</ele>
<time>2022-07-24T05:33:50Z</time>
<name>🦌一番奥</name>
<cmt></cmt>
<extensions>
<kashmir3d:ident></kashmir3d:ident>
<kashmir3d:icon>901001</kashmir3d:icon>
<geographica:icon>10</geographica:icon>
</extensions>
</wpt>
<wpt lat="35.289238" lon="139.040112" iswarning="0">
<ele>838.000000</ele>
<time>2022-07-24T05:42:25Z</time>
<name>🐕放犬･駐車場</name>
<cmt></cmt>
<extensions>
<kashmir3d:ident></kashmir3d:ident>
<kashmir3d:icon>901001</kashmir3d:icon>
<geographica:icon>11</geographica:icon>
</extensions>
</wpt>
</gpx>
